route_id,stop_lat,stop_id,stop_long,stop_desc,stop_name,stop_seq,location_type
06,33.46418141602175,{F41E4B70-6C21-47B6-BBD2-D0659F6F870E},-81.9887521614734,Residential - Wrightsboro Rd 1400 blk,Wrightsboro Rd - Holley St,25,0
06,33.46425780525448,{8A4D2981-9879-4081-BEB5-B4EE917628EB},-81.99004694544696,Mt Zion Missionary Baptist Church,Lee Beard Way - Roulette Ln,26,0
06,33.46317576605826,{66C75E21-98F9-4336-B0BF-9D108161BE04},-81.99058834562422,Linden Square Senior Apartment - Beulah Grove Comm Resource Center - Lamar Medical Center,Lee Beard Way - Beulah Grove Resource Ctr,27,0
06,33.46243633723269,{582883F5-0E6A-41B7-9C2A-903C81F166A0},-81.99094390371725,Beulah Grove Baptist Church,Lee Beard Way - Poplar St,28,0
06,33.46118073829469,{6A6C686B-7827-4F78-8050-C9FB40F4C8F3},-81.99154594794372,Cherry Tree Crossing Public Housing - Residential,Lee Beard Way - behind Cherry Tree Crossing,29,0
06,33.45998465832085,{8286574D-90F7-448D-9698-9A4B3F7CD95E},-81.99241598937992,Cherry Tree Crossing Public Housing - Residential,Lee Beard Way - McCauley St,30,0
06,33.4589806990222,{A3E11127-D4E3-4C32-97C7-C0D2E9F3F6D9},-81.99316780822208,Cherry Tree Crossing Public Housing - Residential,Lee Beard Way - Swanee Quinet Rd,31,0
06,33.45702852541209,{1BBF1E45-7A2C-49AD-A1F0-F31CCCE14DA4},-81.99273432086103,Collins Elementary School,Swaunee Quintet Blvd - Penny St,32,0
06,33.45574250151099,{E8A33ACE-F47E-42F3-BE20-195A950BE914},-81.99216145271387,Residential,Swaunee Quintet Blvd - Steiner Ave,33,0
06,33.45516623892298,{96D1166A-1344-4CB1-8E1C-464A8C14A23F},-81.9944688392344,Residential,Steiner Ave - Hernlen St,34,0
06,33.45510869376145,{B4F033CB-18E6-46DD-9CDD-0C88AA6C649A},-81.9954207711875,Residential,delete - Steiner Ave - Roosevelt St,35,0
06,33.45488374766872,{D692806B-FA66-4B2B-B655-4F9C2D0EB96F},-81.99656187051511,Residential,Steiner Ave - Essie McIntyre Blvd,36,0
06,33.45535603207622,{7F991E3C-58D1-4B96-91BA-A3A139A2CF42},-81.99815315151189,15th St,Essie McIntyre Blvd - Douglas St,37,0
06,33.45497669445594,{1B4E0FBB-C800-4DB5-9D84-56D2F3F75F60},-81.99917735584211,High School - Convenience Store,15th St - TW Josey High School,38,0
06,33.45425953246821,{B2E99AA9-AEEB-4D55-BB70-2D6FF229A7E3},-82.00051432629977,High School,Eagles Way - BOE Maintenance,39,0
06,33.45549859416781,{B3F9B637-C5A4-4D67-BA32-8A4A3A63790A},-82.00476519566324,TW Josey HS Stadium - Public Services Trees and Landscaping Facility,Eagles Way - Koger St,40,0
06,33.45524341069618,{12998AC1-F72E-4B84-B43C-B08C3BD257CF},-82.00703917211968,Universal Plumbing,Eagles Way - Olive Rd,41,0
06,33.4542047470592,{F1D0D298-B3E0-43D2-B737-3E681AAC86B0},-82.00728481794765,Jennings Place Public Housing - Residential,Olive Rd - Cooney Circle,42,0
06,33.45242138705498,{2AB18BAB-12E8-41DB-B6CB-61B04BBA855B},-82.00712459871554,Jennings Place Public Housing - Residential - Good Shepherd Baptist Church,Olive Rd - Shirley Rd,43,0
06,33.45071030900704,{E50FD745-3073-4D90-AE8D-00FFDB227E0E},-82.00725274983503,Church,Olive Rd - Cook Rd,44,0
06,33.44865964447822,{D9EFBE2D-EB5A-4535-8F8B-2667AE778B79},-82.00700025423116,Miracles Unlimited Ministries,Olive Rd - Milledgeville Rd,45,0
06,33.44673212414942,{D03A93BE-0889-4722-BEC4-7995B502F66A},-82.01865423106993,UniHealth Post Acute Care - Kreative Minds Childcare,Milledgeville Rd - Murphy St,50,0
06,33.44683227931694,{CA0ABC3D-A5E5-47D6-983C-8FB63B731F78},-82.02065111396554,School  - Residential,Milledgeville Rd - Murphy Middle Scool,51,0
06,33.44619039114891,{1410B995-0440-48C5-B87B-E8E3357E66BE},-82.02469886086256,Coin Laundry,Kissingbower Rd - 1900 blk,52,0
06,33.44414740513123,{271B6B9C-A91E-4392-A638-B33DCD61AA92},-82.02524945469881,1900 - 2600 blk,delete - Kissingbower Rd - Miller Ave,53,0
06,33.44134857642487,{64B20B2D-AE22-4422-98A8-2262A65BB598},-82.02600103845786,Pepboys,Kissingbower Rd - Kissingbower Rd,54,0
06,33.44087542437701,{58FAA29B-6A69-4F72-8E8B-CFD98A1F65D7},-82.02070438266965,EOL Kmart Shelters - McDonalds - Shopping,EOL Transfer Shelter - Deans Bridge Rd - Kmart,55,1
06,33.44087904541413,{A27D36A5-9A20-484C-BFB6-BD4342E046F3},-82.02071462320387,Kmart Shelters - McDonalds - Shopping,Transfer Shelter - Deans Bridge Rd - Kmart,1,0
06,33.44869171288132,{01D8C33B-AC38-44A8-A1EF-7929D680F15E},-82.00684946009861,Commercial,Olive Rd - Vacant Lot,6,0
06,33.45080226059096,{6C6FD097-BDEF-4795-836A-C7ECD6AD6DFC},-82.00711180551151,New Bread of Heaven Church,Olive Rd - Roosevelt Dr,7,0
06,33.45252025582997,{981BCB2C-6FD7-4B7E-800E-895E49393D74},-82.00697566543313,Jennings Place Public Housing - Residential,Olive Rd - Cooney Circle 1,8,0
06,33.4540930728892,{0B267CBB-8393-4553-8DBE-CFD3BBAA1134},-82.00712829585233,Jennings Place Public Housing - Residential,Olive Rd - Cooney Circle 2,9,0
06,33.45673124836377,{D050ED8D-A2D2-489F-B1AD-9AC8A19C9BED},-82.00758204874991,New Zion Episcipal Church - Convenience Store,Olive Rd - Warton Dr,10,0
06,33.46350478053397,{7B98E6B1-1DDF-4D73-B3D4-215CD1CCE3FE},-81.98702071304085,Convenience Store - Residential,Wrightsboro Rd - Augusta Ave,24,0
06,33.46275735515619,{387564C6-C6A7-4507-9E6F-619A2C42756D},-81.98509916235834,School - Residential,Wrightsboro Rd - CT Walker Magnet School,23,0
06,33.4621041221038,{26BFAB84-26A4-4C4F-A45C-19623D57FEF5},-81.98315720427011,Mt Calvary Baptist Church House of Prayer - Residential,Wrightsboro Rd - Chestnut st,22,0
06,33.46171881922206,{805E84EE-8C2E-40C1-A49B-1179C007877E},-81.98197481850879,Residential,Wrightsboro Rd - Forest St,21,0
06,33.46136625591369,{F769300B-DB18-4B69-BC35-B11ACD651553},-81.98088555297589,Residential - Neighborhood Business,Wrightsboro Rd - 12th St,20,0
06,33.46098995069641,{0BAEF1BA-8D2E-4B43-B202-2D684E756D20},-81.97908760977573,Tremount Temple Baptist Church - Residential,11th St - Wrightsboro Rd,19,0
06,33.46284487748747,{D7871610-77A0-4B9C-A83A-C67FC4FF7928},-81.97814809547127,Residential,11th St - Florence St,18,0
06,33.46450635527693,{E4B5A94C-9D01-45FB-B2B9-6509B2DF70B0},-81.97731321598225,Formally Immaculate Conception School,11th St - Laney Walker Blvd,17,0
06,33.46439035037665,{7B0F155E-E7AC-4607-9F30-C3963A537AC3},-81.9756387225313,Richmond Co Health Dept,Laney Walker Blvd - 10th St,16,0
06,33.46388267316384,{4867B771-6E97-4B0D-AA67-02954CA9BDA6},-81.97415976510767,Richmond Co Health Dept - Laney Walker Historic District,Laney Walker Blvd - James Brown Blvd,15,0
06,33.46471921078808,{39DEC80B-FA67-4D6A-A696-A114A7C6DDC2},-81.97344265143585,Harmony Baptist Church - Laney Walker Historic District,James Brown Blvd - Cecelia St,14,0
06,33.46753066988843,{2400F185-2F0E-4495-8EAE-880A3DB2C94E},-81.97196840520375,Dyess Park - Laney Walker Historic District,James Brown Blvd - DAntignac St,13,0
06,33.46853606052474,{4BAC479A-B6CC-423C-90FB-F4FD6C0D69A9},-81.97144254218453,Convenience Store - Laney Walker Historic District,James Brown Blvd - Barnes St,12,0
06,33.46917023905225,{9BC97D08-3C3F-4057-9AC2-23709EBC5FC5},-81.97110716695619,Judicial Center,James Brown Blvd - Walton Way,11,0
06,33.47198535646723,{46D73CEC-BC01-4EE1-948F-4806F8D2FEB6},-81.96964292311704,Federal Justice Center - back of US Post Office,James Brown Blvd - Walker St,10,0
06,33.47302092514779,{FF338505-EE1F-4DF9-AB19-6E288B2C1398},-81.96903164291517,Downtown - Main Library - Federal Justice Center,James Brown Blvd - Telfair St,9,0
06,33.47453730705974,{3C63E89B-14DD-494F-9DC4-2BE58E124EF0},-81.96831947586514,Downtown - Across from Board of Education Parking Deck,James Brown Blvd - Greene St,8,0
06,33.47692733125745,{5C82D822-4C75-4B2D-887C-90C2E6F70B91},-81.97075118139205,Downtown - United Loan and APEX Finance,Broad St - 11th St,7,0
06,33.47750072625579,{E5DBA857-4993-44F5-8443-A3E0D291C943},-81.97238472739663,Downtown - Downtown Dental and Mellow Mushroom,Broad St - 12th St,6,0
06,33.47867345594157,{0B95F986-9A86-4B62-9354-0D48EBADB7A1},-81.97600293692622,Downtown - Curtis Baptist Church and Schools,Broad St - 13th St,5,0
06,33.47949350601213,{26794A35-E657-4551-B9C1-7F4A88B3EDF3},-81.97856751288872,Downtown - Parking Lot for Curtis Baptist Church and Schools,Broad St - 14th St,4,0
06,33.48062689744504,{6D534425-1090-45DE-8CE2-7FD0BF59CC8A},-81.98211516868231,Downtown - Entrance at Augusta Canal,Broad St - 15th St Fountain,3,0
06,33.4808176900928,{6A27F630-57BB-4DA6-A98A-ACF3FDEFD299},-81.98272794332856,Downtown - Broad St - 15th St at Augusta Canal,Broad St - 15th St,2,0
06,33.48150313944257,{797F8186-32D5-4AF3-84E6-3F5F1958E9A3},-81.98510076416402,Main Transfer Facility - Broad St,Main Transfer Facility - Broad St - 15th St,1,1
06,33.45819240936078,{99E6ECD3-00D8-4A55-BF34-8A11166D6923},-82.00763869778426,Empty warehouse,Essie McIntire Blvd - Olive Rd,11,0
06,33.45882418168901,{2315A2DD-5A13-434D-B67D-72D1A16A44DB},-82.00601127912964,Residential,Essie McIntire Blvd - Sunset Apts 1,12,0
06,33.45847210146341,{A8E4E280-0E62-4B82-9934-96ED9BF275DF},-82.00362557395417,Residential,Essie McIntire Blvd - Sunset Apts 2,13,0
06,33.45700936740388,{EE2C360A-B638-4F79-B736-A27951105BA0},-82.00112729046464,James Henry Roundtree Athletic Complex - TW Josey High School,Essie McIntire Blvd - Garlington Ave,14,0
06,33.45582692272927,{00958D34-AD93-4BFA-8E9E-671EF9A3BDDE},-81.99913756604238,TW Josey High School,Essie McIntire Blvd - 15th St,15,0
06,33.45528448396588,{2A5007DC-2FC7-4AB2-91D8-893C3ED8067B},-81.99827271596125,vacant lot,Essie McIntire Blvd - Douglas St,16,0
06,33.45485966468343,{F4935059-06FE-4F21-ACA8-0AEF0770C144},-81.99618398485173,Residential,Steiner Ave - Essie McIntire Blvd,17,0
06,33.45504475322012,{156DFF66-0906-46A6-A632-2FCC75999C28},-81.99454171268835,Residential,Steiner Ave - Hernlen Ave,18,0
06,33.45556329436761,{ACEB6CA4-4E34-4232-956E-54140B4C0AE3},-81.99219171029996,Residential,Steiner Ave - Swanee Quintet Blvd,19,0
06,33.45690295417238,{8C35D186-6E3E-4753-935C-D2959880A7F4},-81.99257575810469,Collins Ellementary,Steiner Ave - Swanee Quintet Blvd - Penny St,20,0
06,33.45820859640298,{7526F35B-CF5E-434E-B022-7A039CFFBF4C},-81.99318452945821,Collins Elementary,Steiner Ave - Swanee Quintet Blvd - Dunns Ln,21,0
06,33.45991741454677,{27533365-CD21-4830-921C-0CBD03C83456},-81.99234187367121,Cherryree Crossing Public Housing - Residential,Lee Beard Way - McCauley St,22,0
06,33.46121243686454,{D20B7B59-9BFC-4DE0-B1BA-EC3E79E6153E},-81.9913984410767,Vacant lot - Residential,Lee Beard Way - 1500 Block,23,0
06,33.46260601748667,{54C5FAD1-CA91-4E9E-A3AC-0D10D26EFA7A},-81.99072607901226,Beulah Grove Baptist Church - Residential,Lee Beard Way  - Poplar St,24,0
06,33.46318791568021,{4208DC12-D93D-4769-BC2A-5CBEFB018A3B},-81.99044572764346,Beulah Grove Resource Center - Residential,Lee Beard Way - Linden Square Apts,25,0
06,33.46446566475082,{3D713830-FDD6-4755-AAE1-EFE0A50ECA3E},-81.98984647373447,Mt Zion Baptist Church - Residential,Lee Beard Way  - Wrightsboro Rd,26,0
06,33.46409181091205,{D871B8B1-E831-4767-9A24-566408AEBF65},-81.98882330278929,Residential,Wrightsboro Rd - Holley St,27,0
06,33.4634345899134,{3149EF92-A681-4E6E-953A-B679D4F49FFF},-81.9871342881204,Residential,Wrightsboro Rd -Clay St,28,0
06,33.46271754631032,{C4B3D857-875E-400B-80B3-3A300F5B139E},-81.98526679379124,School - Residential,Wrightsboro Rd - CT Walker Traditional Magnet School,29,0
06,33.461858741057,{6AA22252-6DED-43CC-B5AB-133C92779C8F},-81.98270612538364,Vacant Lot - Residential,Wrightsboro Rd - 13th St,30,0
06,33.46134217089355,{F456E68F-F50D-4056-B442-4BC8B1AA9819},-81.98112832788112,Vacant Lot - Residential,Wrightsboro Rd - 12th St,31,0
06,33.46113601898804,{60FCE7D0-1A54-4568-92BE-B73F6A819B0D},-81.97886317656482,Vacant Lot - Residential,Wrightsboro Rd - 11th St,32,0
06,33.46271334250631,{8D5AEC01-79C3-4AC4-AA27-8D4995FEBA09},-81.97807185888485,Residential,11th St - Florence St,33,0
06,33.46462206463949,{7F67773C-7D87-4AEF-96D2-28AD6E2DFEE2},-81.97713388817074,Formerly Immaculate Conception School - Residential,11th St - Laney Walker Blvd,34,0
06,33.46416738795946,{C4C99592-D0CC-4F5E-BDE7-665D3745798E},-81.97549273905318,Richmond Co Health Dept,Laney Walker Blvd - Carrie St,35,0
06,33.46446900403789,{17D0B576-BD7E-406F-9012-FE6A1C76323C},-81.97343427092079,Residential,James Brown Blvd - Cecelia St,36,0
06,33.46576763212804,{BC4F6918-32F9-4025-BC2A-02A5A2C8CC44},-81.9727792919151,Residential,James Brown Blvd - Dugas St,37,0
06,33.46721252058186,{33E175C0-5A33-48DD-83C9-A876A03F6A4A},-81.97198131328872,Dyess Park - Residential,James Brown Blvd  - Dantignac St,38,0
06,33.46856155121891,{997FFCC9-56B8-4488-BB8E-45014CA6A4FD},-81.97125687493497,Convenience Store,James Brown Blvd  - Walton Way,39,0
06,33.46994980554567,{0C33F0D3-664F-43CA-8F02-F05BCFE6460D},-81.97055652315835,Judicial Center,James Brown Blvd  - canal,40,0
06,33.47267189103943,{6022E273-BEDA-4D29-A5DF-81850E5465DE},-81.96908947716824,Federal Justice Center - Main Library - Downtown,James Brown Blvd  - Telfair St,41,0
06,33.47381499033251,{19F75AEB-7C6D-465F-98D7-992F9F63564C},-81.96853180843277,Main Library - Downtown,James Brown Blvd - Greene St,42,0
06,33.47485175173259,{E157637F-798C-43D0-9422-2AC7469330A9},-81.96797919679773,Board of Education Parking Deck - Downtown,James Brown Blvd - Ellis St,43,0
06,33.47685283873938,{2AEBEB4D-6A26-4A57-9713-BCAF1D0E21AE},-81.96950135167684,Dept of Juvenial Justice - Restaurants - Shopping - Downtown,Broad St - 10th St,44,0
06,33.47732848201488,{36DD14E5-FC56-402E-95FE-FFE6B386BF20},-81.97091186970549,Downtown - Restaurants - Shopping - Metro Coffee - Augusta Genealogical Soc,Broad St -11th St,45,0
06,33.47790917745674,{4332BB24-0C6F-4A1C-9BB8-C144D3B137A7},-81.97249528476296,Mellow Mushroom  - Sunshine Bakery - Downtown - Restaurants - Shopping,Broad St - 12th St,46,0
06,33.47895921108903,{FC127F53-BA42-40E7-A42B-8B179880905E},-81.97575839661106,Downtown - Kendricks Paint and Body - Across from Curtis Baptist Church and Schools,Broad St - 13th St,47,0
06,33.47993740321011,{1F2F8863-BC24-4DC5-BDD5-2C67A1035CB3},-81.97881240777092,Downtown - St Sebastian Way,Broad St - 14th St,48,0
06,33.48085073365812,{AB06BD8E-F023-455B-8A7D-1A3734AAE291},-81.98165547669413,Downtown - Streeter Printing - Convenience Store,Broad St - 15th St,49,0
01,33.47632039354265,{9DDF6029-9AEE-4321-9E76-C099C330D2F3},-81.97666308805712,Sacred Heart Cultura Center - between Greene St and Telfair St - Downtown,13th St - John C Calhoun Expwy Under Bridge,5,0
01,33.47540933055495,{44C5FCCB-184F-4116-A485-528C862D8BEF},-81.97705768004657,Augusta Canal - Apartments - Andy Jordons Bike Shop - Downtown,13th St - River Ridge Apartments,6,0
01,33.47286629955832,{AD46C800-6E1B-4BE4-B7D2-4FE329985EEB},-81.97822291662732,Walton Rehabilitation - Augusta Vascular Center,13th St - Independence Dr - Fenwick St,7,0
01,33.47264906983264,{3217E8B1-2F8A-4E36-A55F-C2D38E9B699A},-81.97999981498931,Augusta Canal side of Wallton Way,Wallton Way - University Hospital Entrance,8,0
01,33.47400220087557,{EB81BB46-94CA-4B12-AF7B-2EBBE66A9802},-81.98333645909187,Augusta Housing Authority - Public Housing,Wallton Way - Peabody Apartments,9,0
01,33.47495272805691,{21913AAF-4EF4-4448-9E82-66ED44895A50},-81.98615308520941,Close to 15th St - Grocery - Commercial,Wallton Way - MCG Administration Bldg,10,0
01,33.4754692313838,{F0FCE618-9EC2-4565-A773-0DD3EDD458F2},-81.98968427589701,Select Specialty Hospital  - Szechuan Garden Chinese,Wallton Way - Chafee Ave,11,0
01,33.4756599158671,{1E997CD7-75C7-474F-AABE-77BDF4FC15F4},-81.99297169111188,Georgia Power Bill Pay Center - Commercial,Wallton Way - Bohler Ave,12,0
01,33.47562702776205,{260F83D5-F470-4D9A-935A-D4E171388212},-81.99430163753669,Commerical - Shopping - Family Dollar - Checkers - Liquor Store,Wallton Way - Tuttle St,13,0
01,33.47570791166462,{E2B87597-CB5F-4513-8F22-A9DE7070FF3E},-81.99671558573876,Convenience Store - The Chefs House,Wallton Way - Crawford Ave,14,0
01,33.47576827006549,{42C6B56F-4EE7-4596-BC80-885665810EA1},-81.99961724155455,Restaurants - Commerical - Theresas Mexican - PaPa Johns Pizza,Wallton Way - Holden St,15,0
01,33.4758467998465,{5E3FDC77-2302-4606-A7C8-39DE0FC48B23},-82.00264635036368,Commercial - Grocery - Augusta Boxing Club - Advanced Auo,Wallton Way - Baker Ave,16,0
01,33.47587979467895,{3A9698F3-F7CF-4197-BDD6-8E16965E0264},-82.00454521168024,Convenience Store - Presstech Printing - across from Richmond Academy High School,Wallton Way - Metcalf St,17,0
01,33.47593423387511,{DF3B6740-4BAB-48BF-9403-925CB9E2EDA9},-82.00693253993303,Residential,Wallton Way - Heard Ave,18,0
01,33.47563692340338,{C3214638-D057-4832-AFB5-B226A612BF5B},-82.0094154606864,Bon Air Apartments - Summerville Ace Liquor Store - Residential,Wallton Way - Hickman Rd,19,0
01,33.47590523781652,{C9AAABA4-4D68-45A0-8C50-03383230F225},-82.01099310674624,Bon Air Apartments - Residential,Wallton Way - Bon Air Apartments,20,0
01,33.47651842240344,{A5D53139-4BB1-432A-A3EA-A935330F3CE8},-82.01273230148659,Summerville Neighborhood  - Woodlawn United Methodist Chuch across St,Walton Way - Milledge Rd,21,0
01,33.47785793163038,{0EE38297-29CE-410E-A8E6-A1BD657F44FE},-82.01681823440123,Reid Memorial Church - Residential - Summerville Neighborhood,Walton Way - Johns Rd,22,0
01,33.47813044613469,{1BCA5FEF-F213-4E32-83DF-1BD260D2AA74},-82.01970547934454,Childcare Network - Augusta State University,Walton Way - Katherine St,23,0
01,33.47835858946033,{93AE330D-7462-4BF9-833C-37ACB1B7A808},-82.02318793606719,Augusta State University drop off,Walton Way - Fleming Ave,24,0
01,33.47857914212104,{EED6F897-F9E1-4DFA-A3F0-15AF28D341D0},-82.02691234460158,Summerville - Residential,Walton Way - Monte Sano Ave,25,0
01,33.47871782142531,{FCAB6582-E444-471A-9AD8-4647527525F2},-82.0288696156229,Summerville - Residential,Walton Way - Glenn Ave,26,0
01,33.47900008640225,{2EBDCC40-D5C9-405C-989E-B10F2269D294},-82.03209144080901,Residential,Walton Way - Highland Ave,27,0
01,33.47924642144753,{A5337901-E4A5-4A37-81D4-56159535F4DD},-82.03601163467575,Forest Hills Apts - Georgetown Condos - Residential,Walton Way - Peachtree Rd,28,0
01,33.47904606766731,{6A470C93-B9A6-4527-8EFA-DC34755340A2},-82.03803937829352,The Normandie Condos,Lake Forest Dr - Walton Place,29,0
01,33.47503550555759,{77358D53-2306-41ED-A33D-D57AECAD8F77},-82.038439761696,Forest Hills Neighborhood - Residential,Lake Forest Dr - Bransford Rd,30,0
01,33.47374217511001,{F53A33EC-EE51-4441-99C7-22FA51C4DDC4},-82.03844515523556,Forest Hills Neighborhood - Residential,Beuna Vista Rd - Park Ave,31,0
01,33.46987605662691,{D72F0441-0DFD-4E91-887C-2AADA39C5D51},-82.03888586460792,Daniel Village - Financial - Shopping,Pine Needle Rd - Wrightsboro Rd,32,0
01,33.47039993205956,{6731B525-793D-4757-B302-EEEF7D94D93D},-82.04659685524371,Newman Tennis Center - Forest Hills Neighborhood,Wrightsboro Rd -  Magnolia Dr,33,0
01,33.46830359058615,{1422BDA8-8E15-49A8-B4D5-14D414D40B43},-82.04977724400614,End of Line University Village,EOL Damascus Rd - Jaguar Way,34,0
01,33.47020424665775,{5127776A-7D0E-4743-9A5B-FE731C3B2526},-82.0466317059561,End of Airport Runway - Residential,Wrightsboro Rd - Magnolia Dr,2,0
01,33.47021205891233,{742B57F5-C121-4AFA-9079-725B0FCFE85C},-82.03874819584614,Daniel Village - Grocery - Financial - Shopping - Residential,Pineneedle Rd - Wrightsboro Rd,3,0
01,33.47125221117253,{94DE0D1C-6160-4BA2-94D7-B91B3BC0CF00},-82.03748087469205,BiLo - Comcast - White House Cleaners - Shopping,Central Ave - Navy-USMC Reserve Center,4,0
01,33.47107358235724,{DA784E35-0306-40E3-85D8-7F8E2DEA1EFA},-82.03512765265198,Augusta Utilities Administration Bldg - Residential,Central Ave - Dairy Qeen,5,0
01,33.47081320629905,{194A5505-F5C0-4165-BFED-B9DEE350DD90},-82.03144665989208,Augusta Utilities - Summerville - Residential,Central Ave - Highland Ave,6,0
01,33.47089133737199,{6C715F5F-C861-47C1-BE8C-A3C7A5855B26},-82.02977808750107,Summerville - Residential,Central Ave - Glenn Ave,7,0
01,33.47267303353812,{F7EB3520-DE2E-4F71-9A29-00C9DC7838FC},-82.02786271953661,St Marys Catholic Church - Trinity on the Hill Church - Summerville - Residential,Monte Sano Ave - McDowell St,8,0
01,33.47599452600598,{235B5B13-18DC-4944-A633-9D692267024D},-82.02761477372758,St Marys School - Summerville - Residential,Monte Sano Ave - Bellevue Ave,9,0
01,33.47843058574543,{E2037DD9-7259-4CC7-86E8-9DBE12290FD4},-82.02606661080667,Augusta State University - Residential - Summerville,Walton Way - Arsenal Ave,10,0
01,33.47819876990818,{D486C68C-56EF-4AF2-AF43-6E9D98F5E110},-82.02301765920622,Augusta State University School Entrance - Residential - Summerville,Walton Way - Fleming Ave,11,0
01,33.47799549928269,{09260278-92DF-424D-8687-5FD055082130},-82.0198752447368,Guardhouse Augusta State University - Residential - Summerville,Walton Way - Katherine St,12,0
01,33.47772117137892,{A80E0EC9-A860-49AD-9274-D94406004272},-82.01673786647893,Appleby Branch Library - Residential - Summerville,Walton Way - Johns Rd,13,0
01,33.47653482621154,{1E6953DC-2A37-4CA5-B981-464AED77B962},-82.01309326595819,Woodlawn Methodist Church - Episcopal Day School - Residential - Summerville,Walton Way - Milledge Rd,14,0
01,33.47568232881046,{43A5B208-794D-4D25-89F2-E8C1F63D2ABF},-82.01070607609158,Bon Air Apts - Sizemore Security - Residential - Summerville,Walton Way  - Meigs St,15,0
01,33.47553637435517,{221040C3-9E58-4F88-BD67-A7718BC56386},-82.00923170822478,George Walton Condos - Residential - Summerville,Walton Way - Hickman Rd,16,0
01,33.47573882051938,{278B5158-4B75-4CDD-9C96-E933898BFE17},-82.0060603061755,Business - Medical Complex - Residential,Walton Way - Russell St,17,0
01,33.47572312271355,{99C554EA-3D8D-498E-BB5A-79E6B603CD48},-82.00436354082976,Academy of Richmond County - High School - Residential,Walton Way - Metcalf St,18,0
01,33.47565828014137,{77D4550C-8730-44FC-8123-6079744DFBF0},-82.00273212180746,Academy Plaza S/C - Shopping - Restaurants,Walton Way - Baker Ave,19,0
01,33.47560597892095,{4586632D-B2F8-4E34-96D9-C74C618AF8C7},-82.00016916909029,Outspokin Bikes - Lightning Automotive - Shopping - Restaurants,Walton Way - Eve St,20,0
01,33.47550851089506,{3781D5B8-0A65-4D41-AC5A-FD86050763C9},-81.99702469414243,Formerly Tubman Middle School - Commerical,Walton Way - Crawford Ave,21,0
01,33.47547373786983,{270E6CBF-E4DD-4C06-9C35-ECB15F5FA7AD},-81.99525231545283,Zaxbys - Jiffy Lube - Family Dollar - Shopping - Commercial - Restaurants,Walton Way - Emmett St,22,0
01,33.47541943274268,{E76C5992-4C3E-4F33-9F9D-1BA9866CE5D3},-81.9931224380684,S and S Cafeteria - GA Bank and Trust - Restaurants - Financial,Walton Way - Bohler Ave,23,0
01,33.47537119544073,{F87A6649-6160-43F3-A07F-AB3C05FE7D4E},-81.99112563951421,Fitz Symms Photography - Select Specialty Hospital - The Frame Shoppe,Walton Way - Wrights Ave,24,0
01,33.47528887790331,{3A30C8AD-3756-485C-8C80-866B3BD69DFB},-81.9890275480558,Pharmacy - Shopping,Walton Way - CVS,25,0
01,33.47468687536432,{854CC4C9-7D04-4799-B057-903029DEF44C},-81.98617163697647,McDonalds - Restaurants - Medical District,Walton Way - Liberty St,26,0
01,33.4736083383848,{F1B957B5-B6B8-4F32-8172-F796D5B09718},-81.9830792012304,Mullins Lab - Medical District - University Hospital,Walton Way - St Sebastian Way,27,0
01,33.47267882869777,{C759E47B-ACC4-40D1-AB3D-241D23B177FB},-81.98068830448533,University Hospital  - Medical District,Walton Way - DAntignac St,28,0
01,33.47263693304747,{0D181C87-63CF-4E28-BBF0-82F966E916F0},-81.9781388791689,Vascular Center - Walton Rehab - Medical District,13th St - Fenwick St,29,0
01,33.47568331683432,{08205D9C-E221-46F5-AE5F-0319798EA580},-81.97676749991851,Augusta Canal - Downtown,13th St - Telfair St,30,0
01,33.47559708088938,{F88B6B95-D7AD-440D-A677-8DDDC9436340},-81.97370077521545,Future Transit Station - Old bus station - Downtown,12th St - Greene St,31,0
01,33.47756185237753,{C7860B19-21A3-4EBC-AC7B-91D158C0EA66},-81.97272729214441,Downtown Dental - Business District - Downtown,12th St - Broad St,32,0
03,33.4755247462879,{151EAD03-77A1-4431-B1E8-3290C8F8940D},-81.97192427064317,Downtown - Richmond County Democratic Party Headquarters,11th St - Greene St,7,0
03,33.47416465095229,{F652415E-6AD1-4955-AD56-E6D80F00F191},-81.97262114994365,Downtown - Across from Former Davidson School,11th St - Telfair St,8,0
03,33.47357714709618,{4415B740-4B68-4AD2-A07C-08B9D14A94F8},-81.97143168528787,Downtown - Nephrollogy Centers of America  - Cand C Automotive,Telfair St - 10th St,9,0
03,33.47284999607587,{999B16E7-1AC7-454F-93AE-D814091D62BD},-81.96939140187557,Downtown - Across from Main Library,Telfair St - James Brow Blvd,10,0
03,33.47207306802268,{DAAD3B04-CA56-4A15-90BE-6247496DB240},-81.96713359876155,Downtown - Federal Courthouse,Telfair St - 8th St,11,0
03,33.4714109556035,{B82DEA9C-EC3D-41D2-9E7D-8FDD34C5CC25},-81.96523088276862,Downtown - Bell Auditorium,Telfair St - 7th St,12,0
03,33.47038427680204,{50C8074E-34F4-4230-B3BE-3818DD71A34C},-81.96228411943714,Downtown - Municipal Bldg - Planning and Zoning Bldg,Telfair St - Municipal Bldg,13,0
03,33.46899949959882,{4A04C520-0A8B-481C-8A4C-E8374996DED5},-81.96102618219499,Law Offices - Business District,5th St - Wallker St,14,0
03,33.4672692750234,{4D6AF65C-3A84-42FD-AB91-E4B89A3D4938},-81.96190503962254,DFACS - A and W Oil  - Business District,5th St - Fenwick St,15,0
03,33.46574513558773,{D62148E4-8694-44FA-A331-BD5FE2AB6890},-81.96199864738078,Popeyes  - Wendys - Restaurants - Commercial,Walton Way - Gordon Hwy,16,0
03,33.46535542228698,{1BF7B7CB-F8CE-4E4A-8675-04781FAB0CDF},-81.95948990390401,Richmond Co Jail - Sheriffs Office - Recreation - Community Center,4th St - Carrie J Mays Park,17,0
03,33.46691229111477,{A12E4EF0-A593-4D99-A4A8-F69C53583DB1},-81.95871615245088,Sheriffs Dept,4th St - Watkins St,18,0
03,33.46878700453384,{1CE1C05C-7EDD-49D0-BA23-BF79CF8B8C56},-81.95778431138885,La Maisson Fine Dining - Residential,4th St - Telfair St,19,0
03,33.46815501868144,{6DAAD993-DC8E-436E-BF94-A2D675D2EBD2},-81.95575646490762,Old Towne Condos - Residential,Telfair St - 3rd St,20,0
03,33.46728984303054,{057FF240-76C1-4143-A903-34727A4E4DA7},-81.95316952691896,Old Towne Condos - Residential,Telfair St - 2nd St,21,0
03,33.46656286718996,{13E0BC0B-8334-4F97-94C4-26A9177A3955},-81.95114112328081,Old Towne Condos - Residential,Telfair St - 1st St,22,0
03,33.46607361375148,{73FC328F-C8A7-48FA-A5C2-C5E5870629F5},-81.94972155982562,St Paul Missionary Baptist Church - River Glen Apt - Residential,Telfair St - East Boundary St,23,0
03,33.46430404038247,{471749B1-58CD-419F-A51F-1E09F35BE3C8},-81.95039081008639,Convenience Store - Cedar Grove Cemetery,East Boundary St - Watkins St,24,0
03,33.46309321808859,{838495BD-E36D-42CC-9010-21BBC48B1B10},-81.95098953681655,Cedar Grove Cemetery - Oak Pointe Public Housing - Residential,East Boundary St -East Chapman St,25,0
03,33.46184278520752,{83729499-46EF-4388-A8C0-210272229F7D},-81.95160024754071,Cedar Grove Cemetery - Oak Pointe Public Housing - Residential,East Boundary St - East Armour St,26,0
03,33.46072003949653,{F837283B-E2D6-488C-A02C-D323345C5E87},-81.95217362276365,Hudson Memorial Church - Oak Pointe Public Housing - Residential,East Boundary St - Taylor St,27,0
03,33.46005521333731,{633DE273-8994-4682-B7EF-DA5277B83927},-81.95074981692834,Oak Pointe Public Housing - Residential,East Taylor St - Demaret St,28,0
03,33.45930631400822,{D2B437CB-1D34-4688-9C32-E3AB336030C4},-81.94861228949564,Oak Pointe Public Housing - Residential,East Taylor St - East Cedar St,29,0
03,33.4617806761342,{FD44880B-0D08-43C5-B808-12E7A4C896A4},-81.94712603192426,Oak Pointe Public Housing - Residential,East Ceddar St - East Espinosa St,30,0
03,33.46317617844628,{3FF6CB97-CA0E-4279-B7B0-D0E28694E45D},-81.94644636804759,Residential,East Cedar St - Azalea Ave,31,0
03,33.46509570918568,{AB964279-634C-42D0-A91A-711890413D68},-81.94553305723558,SG Noble Garden of Hope Elderly Care - Residential,East Cedar St - Magnolia Ave,32,0
03,33.46598480988418,{48904ABD-5631-4827-A518-10D93D514A46},-81.94505321141811,Cheeseboroghs Transmissions - Family Dollar - Commerical,East Cedar St - Sand Bar Ferry Rd,33,0
03,33.46437043001531,{269E0507-757B-43B1-959A-81B912ACC94A},-81.94255289124773,Gibbs Auto Parts - Pull A Part - Commercial,Sand Bar Ferry Rd - Convenience store,34,0
03,33.4631563745173,{86826C68-8986-47C4-8041-833F06744254},-81.94214545103819,Residential,delete - Oak St - Magnolia Ave,35,0
03,33.46247800099793,{A9A50099-F2E0-4B8A-9A2C-C20628967E1A},-81.94278395282356,Residential,Oak St - Japonica Ave,36,0
03,33.46159507975094,{8508B5FC-829B-488D-8EB3-5748217869C7},-81.94339024626704,Residential,Wallace St - Azalea Ave,37,0
03,33.45948098326484,{E223E6E2-84A6-4E85-AD68-296242E15C45},-81.94418660155046,Residential,Wallace St - Aiken St,38,0
03,33.45873805235544,{B7F7EE01-1A94-4D50-A10D-7389B78F7CD9},-81.94206936668721,Residential,Aiken St - Point Vedra Ct,39,0
03,33.45821021943079,{9CF48929-EA8C-4FEE-9C62-F80A77B042E6},-81.94023663903053,Residential,Aiken St - Kentucky Ave,40,0
03,33.45934836478828,{5683638E-0112-433F-9B29-3CDF88E6F03D},-81.9391245815321,WS Hornsby Middle School - Residential,Kentucky Ave - Colorado St,41,0
03,33.46029302164934,{31D5AE92-7779-4E46-98CE-C5B77BA1D82C},-81.93821611517146,WS Hornsby Elementary School - Residential,Kentucky Ave - Orange St,42,0
03,33.46110597503663,{19B4002A-9FEA-477A-8AA7-64F1D7B250D6},-81.93605326456408,End of Line - Residential,Courtland St - McElmurray Dr,43,0
03,33.46035059047401,{555E5BB7-3D63-40E4-9EE3-77BEC570DFCF},-81.93829567418729,WS Hornsby Elementary School - Residential,Kentucky Ave - Orange St,1,0
03,33.45950366502537,{F03C2609-263B-4171-A925-3EBF9EC086F5},-81.93908316027125,WS Hornsby Middle School - Residential,Kentucky Ave  - Colorado St,2,0
03,33.4583324502308,{9115726A-EAE0-434B-B1E4-17206C75E48C},-81.94021499611461,Residential,Kentucky Ave - Aiken St,3,0
03,33.45880448773973,{6D4871B3-9470-42FE-ACC4-691772BBD8BB},-81.94185903683217,Residential,Aikeen St - Pointe Vedra Ct,4,0
03,33.45940527704236,{0B9C6B98-FDDF-4060-A725-02CFE4B3DA85},-81.94403712737538,Residential,Aiken St - Wallace St,5,0
03,33.4613181621848,{D82F3C4A-05B2-49A0-BA4D-AD4CFBC4039D},-81.94340680610763,Residential,Wallace St - Beaufort Ave,6,0
03,33.46246902523815,{EA7062C6-6D2F-42BC-867F-3EC65CDC9753},-81.9449216704934,Residential,Azalea Ave - Albany St,7,0
03,33.46333746100533,{FD6E13B6-B4EC-4DD6-826B-576FD44028D7},-81.94633562891536,Residential,Azalea Ave - Cedar St,8,0
03,33.46196658407137,{9D9BA45B-4167-4FBF-83B2-EDC9AAB94390},-81.94716422323879,Oak Pointe Public Housing - Residential,East St - East Espinosa St,9,0
03,33.45951036037612,{1218E640-ADCF-4837-973E-22A0B186F151},-81.94838270294464,Oak Pointe Public Housing - Residential,East Cedar St - East Taylor St,10,0
03,33.46011566667286,{BB292E09-89C7-44F8-9672-0FF7916EEAA3},-81.95066359604104,Oak Pointe Public Housing - Residential,East Taylor St - Demaret St,11,0
03,33.46051672029104,{45F3231C-019C-405D-B84F-14A357925294},-81.95184474689447,Residential,East Taylor St - East Boundary St,12,0
03,33.46167377067224,{8B5B44FE-7618-4DC9-AA83-4BA959725E2F},-81.95154413640232,Oak Pointe Public Housing - Residential,East Boundary St -  East Armour St,13,0
03,33.46302075268869,{6EBDBF40-9072-4278-980A-3594CDCE1651},-81.95086857666664,Oak Pointe Public Housing - Residential,East Boundary St - East Chapman St,1,0
03,33.46424535422802,{130D11DA-A60B-42C7-8D8A-13B1380C55AD},-81.95025713248714,Residential,East Boundary St - East Walker St,15,0
03,33.46585717663412,{C9EFDD7D-B36B-4371-A079-95CC7B938C73},-81.94939460626605,River Glen Apts - Residential,East Boundary St -  East Telfair St,16,0
03,33.4670806877726,{CC02F64D-ED91-49F1-B028-DD2BD9C89962},-81.94878396631881,Olde Towne - Convenience Store - Residential,East Boundary St  - Greene St,17,0
03,33.46791972626946,{D8B1FC01-C674-46EA-8BD7-42B457B07D29},-81.95019488306679,Olde Towne - Residential,Greene St - 1st St,18,0
03,33.46855954419273,{085F276C-8944-4957-BC85-045B461600EE},-81.95206055025884,Olde Towne - Residential,Greene St - 2nd St,19,0
03,33.46988448547769,{A3025BF2-0F43-435A-B3BF-E09DCE048745},-81.95587888292037,Heritage Academy  - Residential,Greene St - Heritage Academy,21,0
03,33.46948515132167,{805C0D22-1EC3-48F5-9A70-9C29AA1D24A3},-81.95484290576204,Olde Towne - Residential,Greene St - 3rd St,20,0
03,33.46974804078135,{7E5CE1D2-0C09-4C48-BF10-ABA18E1B1D5A},-81.95745777571155,Olde Towne - Residential,4th St - Greene St,22,0
03,33.46860602674126,{C2A69831-47D6-4373-A5F3-A20318F76249},-81.95800225706014,Resturaunt - Residential,4th St - Telfair St,23,0
03,33.46714735055904,{13D32A04-9FA1-4064-B5AE-C0B66ED6B651},-81.95874742433527,Bail Bondsman,4th St - Watkins St,24,0
03,33.4651417991313,{9D860ED5-9132-4A39-A66C-890DEFDDAF5C},-81.95976337386226,Carrie J Mays Park - Richmond Co Jail - Red Lobster,4th St - Walton Way,25,0
03,33.46696642105609,{973814FD-F0A3-4991-A527-D580E9905EDF},-81.96188228680231,DFACS,5th St - Fenwick St,26,0
03,33.46869801240595,{59A1C798-CBA3-4A9E-97A6-15EFDD17B176},-81.96100107383823,Bell South Administration Office,5th St - Walker St,27,0
03,33.47174241658755,{4482EE67-E89B-463A-B3C2-648341B7C00F},-81.96135590102186,Downtown - Municipal Bldg,Greene St - Monument  St,28,0
03,33.47213635097205,{14F84EAB-D154-4F83-B1F7-7F8F0A3EFC9B},-81.96242436074108,Downtown - Ga Dept of Labor - RR crossing,Greene St - 6th St,29,0
03,33.47274650684513,{AF02C3D7-DC59-4D2A-AD9A-F4362A6E8E03},-81.96413233709488,Downtown - First Christian Church,Greene St-7th St,30,0
03,33.47344406581674,{0FFF5003-3D6D-4B71-9432-4F743D63251F},-81.96619098458177,Downtown - Jessye Norman School of Arts,Greene St - 8th St,31,0
03,33.47411990102143,{1FD240BF-9055-49D3-BEEA-14E48CC329D3},-81.96814145004304,Downtown - Board of Education Parking Deck - Library,Greene St - 9th St,32,0
03,33.47491112784488,{603896B5-F3EF-474E-81DF-0BA31FEC0BA1},-81.97042308007075,Downtown - Cobb House - Maxwell House Apts,Greene St - 10th St,33,0
03,33.47539268259673,{87C6D22D-8AC7-42C4-A1F2-5DEE60A1B5E5},-81.97182211084343,Downtown - 1029 BLDG,Greene St - 11th St,34,0
03,33.4759425279554,{CAB8030C-9F02-48C5-8C10-60BD4CD55A6B},-81.97347819763021,Downtown - Augusta Dental Center,Greene St - 12th St,35,0
03,33.4772721554636,{5FD83806-8167-4581-81A7-06809064C7BC},-81.97743638511842,Curtis Baptist Church and School,Greene St - Sacred Heart Cultural Center,36,0
04,33.47570938857594,{2C45060E-7633-452C-B8C9-C10BE80B9AA6},-81.96722794113758,Richmond Cnty Board of Education Admin Bldg - Downtown,Broad St - James Brown Blvd,8,0
04,33.4748054884892,{43B77B24-E6B5-4146-AF1C-8071C450A60B},-81.96456675984746,Public Housing - Imperial Theater - Downtown - Theater District,Broad St - Richmond Summit,9,0
04,33.47284682743604,{5E504A36-AD00-4955-AD91-55A92EFA7E2D},-81.9643193687908,701 Bldg - Chamber of Commerce - Downtown - Business District,7th St - Greene St,10,0
04,33.47099094660485,{1EC05F7D-4544-437C-8F74-47EBF4DCAA70},-81.96524974764964,Civic Center  - Bell Auditorium - 1st Presbyterian Church,7th St - James Brown Arena,11,0
04,33.46966516451865,{F5516250-F8D2-4C22-A09E-F1A7ACDB3A2B},-81.96596944361926,Civic Center,delete,,0
04,33.46887098294212,{3F614EA6-E967-42A6-96E6-217A0268A45D},-81.96637945955838,Civic Center - Masters Table,7th St - Fenwick St,12,0
04,33.46768463301147,{0468E964-03FF-4118-84A3-F0726E6D50D9},-81.96695423898248,Residential - Warehouse,7th St - Taylor St,13,0
04,33.46358755779533,{A538C7FE-18CA-41AD-AA60-B0DD240820B3},-81.96906812638461,Garden Villa Apts - Residential,7th St - Hopkins St,14,0
04,33.46226241263493,{4387AFA5-ED16-49BD-B592-3D9BA13AEF73},-81.96954650389465,MM Scott Public Housing - Residential,Twiggs St - Laney Walker Blvd,15,0
04,33.46172633343032,{9F855F32-FB1E-4021-9EFF-B6F368D7D814},-81.96977968852096,MM Scott Public Housing - Residential,Twiggs St - MM Scott Public Housing,16,0
04,33.46009628295101,{8D179AC7-1756-400A-8343-CAF68FB15936},-81.97169239673386,MM Scott Public Housing - Residential,Twiggs St - MM Scott Public Housing,17,0
04,33.45954731892622,{CA12E8B9-18AC-44BB-A909-4600F378B754},-81.97391232419523,Apts - Residential - Church,Twiggs St - Mt Zion Church,18,0
04,33.45956384591071,{5A95529D-084B-48F7-8465-64A18E6E36D9},-81.97549474848974,Residential,Twiggs St - 9th St,19,0
04,33.45874320865962,{5087CE1C-4627-4629-A846-37F321962C04},-81.97682558385465,Residential,Twiggs St - Parks Ave,20,0
04,33.45768256093923,{18B9C893-C309-4C57-AC1B-2E62965FA5C7},-81.97872198224809,Residential - Jordan Grove Baptist,Twiggs St - David St,21,0
04,33.45718215785902,{31685641-70DB-46B5-9FC8-0F8B64C7F8CA},-81.98012582646454,Residential,MLK Blvd - Picquet Ave,22,0
04,33.45630090619736,{1058D4D8-DDBF-49FE-BC19-9AD38E0AA539},-81.9828567254161,Convenience Store,MLK Blvd - 12th St,23,0
04,33.45586029207156,{23519390-841E-4D13-B0BC-9F901865B0CD},-81.9842175013474,Residential,MLK Blvd - Camille St,24,0
04,33.45517014442504,{24B38850-1E22-4D66-9654-1708170ACC24},-81.98636954466967,Smittys Place - Neighborhood Business,MLK Blvd - Mill St,25,0
04,33.45440478075927,{1BF4D8C3-955A-47D1-B14A-66DAB9C59B95},-81.98873941349876,Residential - Fire Station,MLK Blvd - Fuller St,26,0
04,33.45404317942535,{5A4E3A05-5957-4E34-9A7A-E6C3B69B1357},-81.9898203153152,Residential,MLK Blvd - Kent St,27,0
04,33.45359722752871,{C41A6E63-6B87-4D0B-BA53-DEC52BAD5539},-81.99122021046554,Convenience  Store - Beauty Shop - Neighborhood Business,MLK Blvd - Swanee Quintet Blvd,28,0
04,33.45293741043417,{69F70790-9E94-487D-84AB-049FB1FE9BA6},-81.99327917604705,Residential,MLK Blvd - 7th Ave,29,0
04,33.45176473246826,{7DF4DA3C-426A-41F8-841B-1054D37588B5},-81.99519168977639,First Mt Moriah Baptist Church - Residential,9th Ave - MLK Blvd,30,0
04,33.44983596172591,{40C2DFF9-A32D-46C9-A12B-D28AB8E7E5DE},-81.99385905600458,Residential,9th Ave - Grand Blvd,31,0
04,33.44901613798294,{A0C5FD58-A911-4059-84B0-495ABDFBE7E0},-81.99543035394707,Carrie J Mays Park - Residential,Grand Blvd - 11th Ave,32,0
04,33.44845223125616,{DDDC023B-61F2-4260-A2B2-C83AEBF3C602},-81.99654167780521,Residential,Grand Blvd - 12th Ave,33,0
04,33.44709186841545,{B931F830-2F1C-4E38-8A5B-A9A3BCDF6F71},-81.9992952102964,Residential,Grand Blvd - 15th Ave,34,0
04,33.44739704138643,{D1791EB6-71AD-442F-AEAF-B3695E18651D},-82.00134038535687,Southview Cemetery,Nellieville Rd - Sullivan Rd,35,0
04,33.44523857581191,{8065C864-6161-409A-88DD-1635F85C8065},-82.00314379701976,Residential - Doughtery Park,Nellieville Rd - 2nd Ave,36,0
04,33.44391721804766,{7920D324-7F0D-4F9C-9ABD-11017B6CE578},-82.00255741764663,Ball Park - Recreation,3rd Ave - Doughtery Park,37,0
04,33.44333168990062,{40507DF5-E990-4316-B3A4-9B62EF0B028F},-82.00154513194266,Residential - Church,3rd Ave - House of God Church,38,0
04,33.44232497049387,{EF97C4C3-ED7E-4EB4-802F-A07A92C4613F},-81.99974707140592,Dogwood Terrace Public Housing - Residential,3rd Ave - Leonard Ave,39,0
04,33.44148179071605,{9CE24A21-3616-42E6-BAA1-7E7D6067D29A},-81.998246253837,Dogwood Terrace Public Housing - Residential,3rd Ave - Bolt Ave,40,0
04,33.44073742542883,{0DD31D48-ABAE-4F6E-AFF7-5A668AA26257},-81.99692518298133,Dogwood Terrace Public Housing - Residential - Commercial,3rd Ave - Old Savannah Rd,41,0
04,33.43886396596153,{E232FF89-78A6-4612-BBDB-8DE9693F2D3C},-82.00067904673971,Commercial - Restaurant,Gordon Hwy - Harvest Table Restaurant,42,0
04,33.43932849202037,{39CFC2DA-9589-4965-BACE-3D378AEACE5E},-82.01786665681473,Pharmacy - Shopping,Gordon Hwy - CVS Pharmacy,45,0
04,33.44047944968394,{BBC62162-480E-45F7-B54B-E247A9EFAE2B},-81.9969129452831,Convenience Store - Dogwood Terrace Public Housing - Residential,Old Savannah Rd -,3,0
04,33.44177576811475,{7E32600F-4036-43DA-868F-173409A86ED8},-81.99565361734496,Dogwood Terrace Public Housing - Residential,Old Savannah Rd - 1st  Ave,4,0
04,33.4433722717034,{0A630BA0-D3F9-476D-91AF-D0947F622672},-81.99652569108804,Boys and Girls Club - Dogwood Terrace Public Housing - Residential,15th Ave - Bolt Ave,5,0
04,33.44522462273913,{C0D0B0A6-9150-4CE2-BCEF-7281B29DA26B},-81.99799358245055,Jenkins White Elementary School,15th Ave - Boykin Pl,6,0
04,33.4471370860656,{97EB62C5-3ADC-4F4A-A7CB-106C7615B0A0},-81.99883877203047,Residential,Grand Ave - 14th Ave,7,0
04,33.44825248012782,{3F6BBE50-F27E-42D6-AEC4-06B06189C5C7},-81.99660936783134,Residential,Grand Ave - 12th Ave,8,0
04,33.44874364872417,{003EC540-979E-4813-9BCD-0BCDC5295CFE},-81.99561563159763,Carrie J Mays Park - Gym - Recreation,Grand Ave - 11th Ave,9,0
04,33.44966274490643,{2BDD59F4-E35E-4C34-B169-54A75E0EDC07},-81.99375951130413,Residential,Grand Ave - 9th Ave,10,0
04,33.45211776091084,{CBD753A7-014E-4EA9-876F-3EE80C0A3850},-81.99533566456428,First Mt Moriah Baptist Church,MLK Blvd - 9th Ave,11,0
04,33.45274012032629,{64AC4A83-E31E-4DF6-BB80-97F96FBA82C2},-81.9933782964753,Residential,MLK Blvd - 7th Ave,12,0
04,33.45336493338229,{F49BFDC5-78BD-4D6A-9DF5-80DA5A94843E},-81.99156618193275,Residential,MLK Blvd - Turpin St,13,0
04,33.45376140236771,{8A03FB30-E4D3-4A86-9CCE-A58EFB67F769},-81.99031326770954,Residential,MLK Blvd - Kent St,14,0
04,33.45424587926106,{813DE25E-EDC0-4AD6-B991-3DDB787871BF},-81.98889381908329,Residential,MLK Blvd - Fuller St,15,0
04,33.45500271805828,{F1D6804C-C0A8-41F4-BD4E-1F06C2D17AA0},-81.98654810336636,Residential - Neighborhood Business - Smittys Lounge,MLK Blvd - Mill St,16,0
04,33.45571149609462,{8DF88F30-281C-41F7-A1E0-3A7ED245CF15},-81.98427463272259,Residential,MLK Blvd - Camille St,17,0
04,33.45625464376103,{AD9328D4-17BC-406E-9D38-769C1DD4DBF7},-81.98258678460186,Convenience Store - Residential - Neighborhood Business,MLK Blvd - 12th St,18,0
04,33.45709390205949,{E9F0E338-4105-42F4-892E-D6B87E9C34D9},-81.98005389891094,Residential,MLK Blvd - Picquet Ave,19,0
04,33.45768041308003,{BB4CDEC2-61C8-4468-ADF6-F84D63434472},-81.97846334638351,Residential,Twiggs St - David St,20,0
04,33.45872837408767,{76945EC4-7B99-4A20-B4A7-08578AE9C968},-81.97667744774324,Residential,Twiggs St - Ash St,21,0
04,33.45930542936095,{D4FF0191-9986-4A1C-B2B2-CC8CC3F952BC},-81.97557174582714,Residential,Twiggs St - Nicholas St,22,0
04,33.45946116985436,{B16CE700-831E-4703-A821-AD19F6118FE6},-81.97417149463817,Residential - Church,Twiggs St - Apartments,23,0
04,33.46007783329009,{80E366FC-40FC-4C56-93BB-3892FD737993},-81.97140243321195,MM Scott Public Housing - Residential,Twiggs St - MM Scott Pulic Housing,24,0
04,33.46166290967101,{561A6094-44C9-41A7-B2BF-97DD2CD42F6B},-81.9695960871103,MM Scott Public Housing - Residential,Twiggs St - Laney Walker Blvd,25,0
04,33.46363343387512,{9FFB0ED0-0CA0-4F7B-B76C-D3298BA546CF},-81.96887236199856,Residential - Warehouses,Twiggs St - Hopkins St,26,0
04,33.46880176525967,{D3A2E9F6-87A9-4AA6-AF56-4C9D96BB3EB3},-81.96618832269444,James Brown Arena - The Masters Table - Downtown,7th St - Fenwick St,28,0
04,33.47126783128091,{8AE272B2-D7F7-4695-83BD-087139AA1589},-81.96496309462022,Bell Auditorium - First Presbyterian Church - Downtown,7th St - Telfair St,29,0
04,33.47239528018605,{2C35D0EF-D20D-4074-A901-251600D7D67D},-81.9644197995964,Chamber of Commerce - Church - Downtown,7th St - Greene St,30,0
04,33.47440278215672,{7DCAA05E-8313-4561-BE06-36EDBFAF6AEA},-81.96338672755228,Downtown - Metro Spirit,7th St - Broad St,31,0
04,33.47666252212359,{C8126DA9-3840-41D4-970A-4FBAFB175A9F},-81.96460434531112,Downtown - Cotton Exchange Bldg - Saturday Market,Reynolds St - 8th St,32,0
04,33.47741725655353,{C065F8BA-2602-4174-9583-C9A0F20D7B3B},-81.96662584049219,Downtown - Beamies Restaurant  - Marriott Hotel - Shopping,Reynolds St - James Brown Blvd,33,0
04,33.47821933015888,{0C6C650E-5551-4AF0-80DD-B5B82BC5B6AA},-81.9688165221348,Downtown - Augusta Riverfront Centeer - Marriott Hotel - WJBF - Morris Museum of Art - Riverwalk,Reynolds St - 10th St,34,0
04,33.47871555447299,{721E7C86-1BA2-495B-9568-7B94CBE77E2D},-81.97022162928553,Downtown - Firestation,Reynolds St - 11th St,35,0
04,33.48088483594101,{8FEB91B1-F151-42B1-8C2D-2681F848DF68},-81.97707253954347,Downtown - Sizemore Security - Butler Automotive  - NAPA  Auto Parts - Stafford Bolt,Reynolds St - 14th St,36,0
04,33.48112418197288,{CE6A8245-EE10-407B-A26D-8E4CA52FECFC},-81.98244463899943,Downtown - Convenience Store,15th St - Broad St,37,0
16,33.43958001320679,{7296AE0C-EB0D-4A38-9965-70B36B97CB3F},-82.01839601024697,Shopping - Kmart - CVS Pharmacy,Gordon Hwy - Convenience Store,2,0
16,33.43516246279595,{64D8D33D-F2C0-424F-A851-83D2FCA10498},-82.03199175892478,Residential - Hillcrest Memorial Cemetery,Deans Bridge Rd - Jennings Rd,3,0
16,33.43372140698235,{2E7B41FD-1818-4628-AD9F-8E185C0BD741},-82.03538932602521,Dialysis Center,Deans Bridge Rd - Richmond Hill Rd West,4,0
16,33.43234342314652,{9958F768-F62B-4451-95C7-80968F3015C6},-82.03873238121744,Residential - Commercial - Dry Cleaner,Deans Bridge Rd - Cornelia Rd,5,0
16,33.43063445615795,{4274001C-95D2-4FF6-9424-36BFC9A5FB18},-82.04272275521981,Convience Store - Commercial,Deans Bridge Rd - Wheeless Rd,6,0
16,33.42938556882635,{13BDED09-EE64-4C2F-A79C-D4093DB701C1},-82.04563737948435,Residential - Hillcrest Baptist Church,Deans Bridge Rd - Ridge Rd,7,0
16,33.42839449743126,{5B11A1FC-FD82-4734-AA18-078993B99743},-82.04793014562527,Commercial - Hotel - Villa Europa - Restaurants,Deans Bridge Rd - Golden Camp Rd,8,0
16,33.42706977650553,{D23DF982-9C77-42C9-B12D-02D4D51FC808},-82.0510354774371,Grocery - Commercial,Deans Bridge Rd - Knights Meat Co,9,0
16,33.42436571109736,{5D5E2887-6CA2-4769-95AC-1AB0258D7BC4},-82.0541186312941,Grocery - Shopping,Augusta Tedh Blvd - Kroger,10,0
16,33.41840666561541,{BD33B858-BF2C-4FC2-BB72-65307DDA564D},-82.0505964397171,Information and Engineering Technology,Augusta Tech Blvd - Bldg 800,12,0
16,33.42206091740763,{340AB88A-A21D-4777-AB1B-C8B56C6E0010},-82.05287221543799,Apartments - Residential,Augusta Tech Blvd - Antebellum Dr,11,0
16,33.41710388838958,{9BB4AB1D-5307-480B-8057-CE16F377F4F1},-82.04973629189004,Bldg 600 - Center for Advanced Technology,Sucess Ave - Career Dr,13,0
16,33.41763924366845,{85DE9E3B-322A-4EC5-A770-2DB207DFC561},-82.04753743322587,Early Childhood Development,Success Ave - Bldg 500,14,0
16,33.41869869457602,{2106DB99-EBB3-406D-BE0F-88393BEA9A6F},-82.04714719399996,Administration - Student Accounts,Career Dr - Bldg 100,15,0
16,33.41915726750951,{472BD200-9662-4DF0-865A-01CD567FC8FA},-82.04607850319859,Adminissions - Bookstore - Financial Aid - Student Services - Parking K,Augusta  Tech Blvd - Bldg 1300 - Admissions,16,0
16,33.42089007695474,{6103C828-1D1A-4A9F-8A28-8F9B599DDCD1},-82.04398044626308,Technical College - Residential,Augusta Tech Blvd Entrance - Lumpkin Rd,17,0
16,33.42069679701095,{178CCCC2-383C-4227-A447-CCCDBE8C4BE8},-82.04092663268061,Residential - Lumpking Rd Apt - Daycare,Lumpkin Rd - Shelby Dr,18,0
16,33.42037884821467,{7FE22DF1-02B3-4958-96C6-8E3BF94B63C7},-82.0370696108052,Burns Memorial United Methodist Church - Residential,Lumpkin Rd - Burns Dr,19,0
16,33.42007613491427,{B55D61DC-F3C7-42E6-A7CA-1AD4F1CC37F5},-82.03327206169065,Island Seafood - Jacks BBQ -Commercial - Restaurants,Lumpkin Rd - Richmond Hill Rd,20,0
16,33.41991031735837,{44C64563-0F21-4EC7-AFE9-89B8ED53A05A},-82.03157562738755,Commercial - Beauty - Laundry,Lumpkin Rd - King St,21,0
16,33.41944830205073,{E1AFBEE8-E604-46E4-A611-F3D7884EA7C9},-82.02830419354979,Park South - Residential,Lumpkin Rd - Jackson St,22,0
16,33.41906799518949,{6E300B2B-54F0-416B-9FC6-97530DB13E62},-82.02540831954673,Residential,Lumpkin Rd - Charlestown South Apts,23,0
16,33.41882633978523,{EB3506C5-50C2-4073-B03D-4FCC5ECE836E},-82.02374785221943,Alleluia Community School - Commercial,Lumpkin Rd - Advanced Auto Parts,24,0
16,33.41584315615557,{7F1F2B37-3A34-436F-AA6A-F20317593F36},-82.02412401781388,Commercial - Wendys - Golden Corral - Restaurants,Peach Orchard Rd - Harding Dr,25,0
16,33.40936272915007,{79AAAE43-E613-4342-AFA1-B8993EBA1EB7},-82.02461956699078,Shopping - Commercial,Windsor Spring Rd - Lowes - Goodwill,27,0
16,33.40928507341683,{F1D173C5-8E46-428B-9717-E74314E51574},-82.01017760501944,New Horizon Church of God - Residential,Windsor Spring Rd - Old Loisville Rd,30,0
16,33.40734498109832,{534EED21-15C9-440D-87C8-9BB19A4B02AF},-82.01129172485268,Sherwood Baptiist Church - Residential,Old Louisville Rd - Gay Dr,31,0
16,33.40337290997286,{D52786B2-C78E-418C-9609-0B793DD16044},-82.01358333039755,Southside Elementary Schoo - Residential,Old Louisville Rd - Southside Elementary School,32,0
16,33.39840806796904,{6FECD0F3-08A8-4B99-90E6-415D1500E2E5},-82.01583464354181,Mental Hospital - Residential,Ga Regional Hospital Back Gate - Louisville Rd,33,0
16,33.397673093145,{1F3FFA6E-95B9-486B-8CAD-BC9A160CAB55},-82.01084404023104,Mental Hospital Security Police Guard Post,Ga Regional Hospital - Brownlee Dr,34,0
16,33.398134518736,{CCC59F89-646C-4919-A7F5-F32DF5FE4302},-82.00696064976542,End of the Line - Mental Health Centers,EOL Ga Regional Hospital Entrance - Serenity Behavorial Health,35,0
16,33.39895749338646,{82889608-7D5D-4E44-92BC-9922C503979C},-82.00538713675456,Convenience Store - Commercial - Restaurants - Waffle House,Mike Padgette Hwy - Bojangles,1,0
16,33.40845501490889,{62DA22B4-C5CC-4854-850F-361A8F02FBA5},-82.0062102111264,Sunbeam  Outlet - Commercial - Residential - D&amp;S Tire - Augusta Data Strg,Mike Padgette Hwy - Wylie Dr,2,0
16,33.41247410636331,{8C02CB14-356D-42ED-A8EC-7E7C95340EB3},-82.00656271364048,Southeastern Equipment Co - Commercial  - Residential - Future BOE Bus Terminal,Mike Padgette Hwy - Boswell Ln,3,0
16,33.41870354090831,{5ABBC556-77FE-4EB1-97A2-3C31607219C4},-82.02126138100996,License Renewal - Recreation Substation  - Commercial - CVS,Lumpkin Rd - Peach Orchard Rd,7,0
16,33.41898174802633,{D0ACFB8D-D84B-4CA8-9D28-09D9E59DA26C},-82.02343188253232,School - Commercial - Pharmacy,Lumpkin Rd - Alleluia School,8,0
16,33.41925462592499,{FD8F6304-8A44-4841-A6BC-1172FE26FBCF},-82.02572429265285,Residential  - Childcare Network,Lumpkin Rd - Charlestowne South Apts,9,0
16,33.41965947715364,{7B256286-03B2-4D42-BCF4-E16E4F211AAE},-82.0285290404927,Residential - Colemans Mini Plaza,Lumpkin Rd - Jordan St,10,0
16,33.42012910730925,{9E466D0A-8DC0-4351-A71C-F4CCBF04B565},-82.0321714778916,Convenience Store - Commercial,Lumpkin Rd - Richmond Hill Rd,11,0
16,33.42023412793584,{97CCD7D2-2581-4F81-A1D4-417199D8CA72},-82.03342806987259,Commercial  - Church - Island Seafood Market and Restaurant,Lumpkin Rd - St Albans Episcopal Church,12,0
16,33.42052809922127,{32C974B5-D5D2-4C28-BF44-057A89BC902A},-82.03701106201612,Residential - Burns Memorial UMC,Lumpkin Rd - Allen Ave,13,0
16,33.42074730322885,{2F43C119-28B7-4E9A-93D8-C3A574B9D5A5},-82.03986935107024,Residential - Flemming Apts,Lumpkin Rd - Green Meadows  Dr,14,0
16,33.42087733291991,{3447A470-04C5-4190-A6F1-D30F5EAEA884},-82.04417336174245,Technical College - Residential,Augusta Tech Entrance - Lumpkin Rd,15,0
16,33.41917311994712,{9C851958-780F-4D6F-96D1-6D0083239A93},-82.04581652566523,Adminissions - Bookstore - Financial Aid - Student Services,Augusta  Tech Blvd - Bldg 1300 - Admissions,16,0
16,33.41868954394529,{2B1FB791-67B5-4DE5-9A80-01A07FBE4600},-82.04727190018888,Administration - Student Accounts,Career Dr - Augusta Tech Blvd - Bldg 100,17,0
16,33.41763071399716,{E228BE10-03E3-459D-9C75-AA007DAA0590},-82.04767418344434,Early Childhood Development,Career  Dr - Bidg 500,18,0
16,33.41714003673967,{5C3010E7-E5A6-4838-A364-FB63838CB611},-82.04988759624783,Bldg 600 - Center for Advanced Technology,Career  Dr - Success Ave - Bldg 600,19,0
16,33.41799280593046,{70B5421E-E418-456A-BCF4-CB9E5062A389},-82.05023933415241,Information and Engineering Technology,Success Dr - Bldg 800,20,0
16,33.42197109718176,{35CDB9A4-B588-416F-AC72-3E5DED50AE5E},-82.05258720450445,Apartments - Residential,Augusta  Tech Dr - Antebellum Dr,21,0
16,33.42444362669631,{101CF2D4-2FB5-4C19-AC0A-6B958E2A8E9C},-82.05395604177777,Grocery - Shopping,Augusta  Tech Dr - Koger,22,0
16,33.427032774037,{FA284891-29A7-40BB-A1C5-DC32181A4E30},-82.05048906429805,Commercial - Residential,Deans Bridge Rd - Across from Mobile Home Park,23,0
16,33.42801145320335,{E8578E27-799B-4B2C-9C62-D29F31C1E316},-82.04818563488749,Commercial - Motels - Villa Europa,Deans Bridge Rd - Dover St,24,0
16,33.42892170353034,{179E798C-F730-43E5-BCED-00D02BB5D43A},-82.04603350096808,Commercial - Dougs Meat Shop - Pawn Shop,Deans Bridge Rd - A1 Pawn Shop,25,0
16,33.43054759329129,{1AED041E-9FD0-4B8D-AE49-50D06B8E064A},-82.04211429940702,Commercial - Auto Zone - Convenience Store,Deans Bridge Rd - Wheeless Rd,26,0
16,33.43204667585994,{C2283169-79B4-407E-A99F-6DEB02C6F1A1},-82.03863488451761,Residential,Deans Bridge Rd - Cornellia Rd,27,0
16,33.43331506893659,{9D15CE7F-8649-48E9-B69F-73AD49F8335E},-82.03559287092071,Commercial - Auto Zone - Convenience Store,Deans Bridge Rd - Richmond  Hill West,28,0
16,33.43493457342162,{EA186D92-AC5A-460F-8359-141C77DAAB61},-82.03187709706741,Cemetery - Residential,Deans Bridge Rd - Hillcrest Memorial Park,29,0
01,33.48150313944257,{C07D851D-555A-47D8-87B1-BEFE997BBF14},-81.98510076416402,End of Line - Main Transfer Facility - Broad St,EOL Main Transfer Facility - Broad St - 15th St,36,1
01,33.48150313944257,{C853E5DF-B6C6-49F7-800B-6B8E101C55F1},-81.98510076416402,Main Transfer Facility - Broad St,Main Transfer Facility - Broad St - 15th St,1,1
12,33.47664187651383,{F14DF260-DC8E-48AB-8D3A-485E098A255F},-81.98627083743948,Kroger - Across from MCG Administration Bldg  - Mooney Shoes,15th St - Kroger,3,0
12,33.47457476251865,{B8539445-2EC4-4FD9-909C-B3BCA61A6E22},-81.98838547082066,CVS Pharmacy - Across from VA Hospital,15th St - Walton Way,4,0
12,33.47221272971194,{2DA047D3-82C0-4902-96C3-26AB0D39410F},-81.99075427889601,MCG Parking - Medical District - Across from MCG Hospital,15th St - Pope Ave,5,0
12,33.47072027065249,{486C9DFC-FB7D-4E17-90F1-E10AC99C803C},-81.99175447498367,Medical District - Hotel - Convenience Store - Across from MCG Bldg aand Parking Deck,15th St - Laney Walker Blvd,6,0
12,33.46768214127206,{81E7CD82-5C4C-4D58-984E-964B67DF1B62},-81.99318477190386,Paine College - Medical District -  Across MCG School of Dentistry,15th St - Central Ave,7,0
12,33.46762916195539,{8A680D1C-C1B8-496A-943F-3A2FF641C4CA},-81.99468694280508,Paine College Entrance - Residential,Central Ave - Oak St - Emmitt St,8,0
12,33.46555752959741,{AAB2926F-8B44-4DFC-AB54-444D5130820E},-81.99577714657474,Colonel Bakery - Shepherd Blood Center - Acoss from Solo Cup - Easter Seals,Emmitt St - Wrightsboro Rd,9,0
12,33.46587628102964,{60C9B0B3-3E7A-4582-A18F-7A5AFF5E65E3},-81.99988840811277,Residential - Solo Cup,Wrightsboro Rd - Holden St,10,0
12,33.46623360127128,{D57E5D4E-D4C9-40B1-A362-DB6C17944DE3},-82.00340068465471,Residental,Wrightsboro Rd - Wilson St,11,0
12,33.46638518465032,{34A4F0F0-4908-497D-8FDE-D105430CA2C1},-82.00521577156295,Residential - Apartments,Wrightsboro Rd - Baker Ave,12,0
12,33.46662658106286,{AC217FE0-C029-4DBB-B308-4230D94DAE58},-82.0073086800094,Residential,Wrightsboro Rd - Morris St,13,0
12,33.46699758777527,{5AD171EF-B0F5-489E-A206-D06553BFA9E6},-82.01047166628646,Residential - Summerville,Wrightsboro Rd - Heard Ave,14,0
12,33.46737836154514,{B72DB539-AD13-4E49-8136-2174936D6C57},-82.01434032898109,Childcare Network - Residential - Summerville,Wrightsboro Rd - Troupe St,15,0
12,33.46772947380061,{41B3DB98-5AB9-487C-8932-0DAA0C69932B},-82.01790450017239,Medical - Across from Trinity Hospital - Residential - Summerville,Wrightsboro Rd - Winter St,16,0
12,33.46808889394556,{AEFC2770-49EA-4D85-961D-A63DBD096743},-82.02138241887407,US Post Office - Medical - Residential - Summerville,Wrightsboro Rd - Stovall St,17,0
12,33.46835892414877,{168C433A-38D1-44AD-B649-4FE76409E5AC},-82.02398381231993,Medical - Across from VA Hospital - Residential - Summerville,Wrightsboro Rd - Whitney St,18,0
12,33.46849823401644,{3C36BA64-17C2-4429-BBF7-234845960C5E},-82.02560290007249,VA Hospital - Convenience Store - Residential - Summerville,Wrightsboro Rd - Schley St,19,0
12,33.46879035670497,{FD43462A-2F97-417F-87CF-1378C6EE6575},-82.02824109410349,Business - Residential,Wrightsboro Rd - Monte Sano Ave,20,0
12,33.46900561384189,{8CF46999-0FFF-4A6F-A853-079DDB36DA68},-82.03068587246274,Commercial - Residential,Wrightsboro Rd - Ohio Ave,21,0
12,33.46929854118309,{7535B423-4406-4463-9268-B6610EFCFAF3},-82.03323849929804,Commercial - Trinity Home Healthcare - Daniel Village Shopping Center,Wrightsboro Rd - Iris Rd,21,0
12,33.46978220340498,{17BCA477-D5E5-4487-9D66-456B5A665CB0},-82.03875152257673,Commercial -- Banking - Residential,Wrightsboro Rd - Pine Needle Rd,23,0
12,33.47041639911029,{DC6A2642-EABA-4ABD-92CB-927C1DC7E462},-82.046599462179,Newman Tennis Center - Residential,Wrightsboro Rd - Magnolia Dr,24,0
12,33.47039366750251,{F3287907-79AF-41FA-8B24-6B7DC1BBB2DC},-82.0495814063638,Newman Tennnis Center - Commercial,Wrightsboro Rd - Damascus Rd,25,0
12,33.47026460110289,{CF1CA9E7-3E1E-4901-9079-F57960FCB984},-82.0528358149909,Commercial - Restaurants,Wrightsboro Rd - Golf Course,26,0
12,33.47000116210511,{07FA8B0A-AF2D-4AFF-95FB-9F33E5BDF6DF},-82.05796696817242,Augusta State University Sports Complex - Georgian Place Apartments,Wrightsboro Rd - Vanover Dr,27,0
12,33.46991080381417,{25DC1196-458D-401A-9BDC-63A35B0A8722},-82.05982416469749,Residential - Commercial - Masonic Temple,Wrightsboro Rd - Valley Park West,28,0
12,33.4697274677935,{B905DD58-C733-47E7-BF01-4E20583CB430},-82.06223090711328,Residential - Commercial,Wrightsboro Rd - Goverrnors Place Apartments,29,0
12,33.4695613243702,{9B66073C-61F3-487D-A7E4-F8BF54854C03},-82.06525532348915,Commercial - Shopping - Pharmacy,Wrightsboro Rd - CVS Pharmacy,30,0
12,33.46809513400307,{02A9693D-99A6-494D-A619-8FEF736A3EE3},-82.06725299279121,Autozone - Shopping - Freds - Salvation Army Store,North Leg Rd - Sibley Rd,31,0
12,33.46394827567874,{0037A6CD-FAC5-421E-8821-C81278D04438},-82.06865605261562,Residential - Forest Estates,North Leg Rd - Forest Estates Dr,32,0
12,33.45529842125828,{F2BDA318-FEA6-4100-9736-5151E3FD7771},-82.06605637221615,Richmond Co Board of Health - Residential,North Leg Rd - Vintage Creek Apartments,33,0
12,33.45467927650346,{41E435B6-7794-415D-A3C6-752EE9B45159},-82.07040370058468,Commercial - Champions Pines Apartments,Wylds Rd - Augusta Utilities Facility,35,0
12,33.45967939618575,{D347383D-037A-4433-834A-73186B7118AD},-82.07628487934187,College - Commercial -Shopping,Wylds Rd - Virginia College,36,0
12,33.46256343458916,{F05C71B4-C611-43DA-8CED-9878C3CC7BD4},-82.07945957800328,EOL - Shopping,EOL Augusta Mall -  Food Court,37,0
12,33.46794013519185,{DE3D523D-3B45-43E6-8E00-CF6A8C703F0C},-82.07683973289907,Shopping - TJ Maxx - ROSS - Starbucks - ATT,Wrightsboro Rd - Augusta Square Shopping Center,2,0
12,33.46822343439153,{02ECA23E-1D56-4B3F-8E77-B8E319EEC689},-82.07501058621368,Shopping - Restaurants,Wrightsboro Rd - Wylds Rd,3,0
12,33.4684517890586,{DB699A75-68B2-4347-9C5E-40FAFF4981AC},-82.07300439237858,Shopping - Commercial,Wrightsboro Rd - C and S Dr,4,0
12,33.46885949129667,{D79CED79-FB3E-4313-8F29-E6CCDF5F1CEA},-82.06993782868811,Commercial - Baldinos Subs -  US Army Reserve,Wrightsboro Rd - New Life Christian Center,5,0
12,33.46935342886294,{3D5FAD99-1730-4DC8-9EAC-C3CA0FF85F53},-82.06535080554794,Commercial - Shopping -Taco Bell - Pharmacy,Wrightsboro Rd - North Leg Shopping Center,6,0
12,33.46955991407961,{A91C9D81-9C97-4AE2-90B7-2321D525771D},-82.06226321484191,Residential - Commercial  - Apartments,Wrightsboro Rd - Champagn Ave,7,0
12,33.46969775578491,{59EFE6CC-6978-446B-B7D5-136446B3CA9A},-82.06034929714451,Residential - Georgian Place Apartments,Wrightsboro Rd - Valley Park West,8,0
12,33.46986135843854,{94CDA137-7787-4045-A1A7-9E1E69E7C6DB},-82.05725004351703,Residential - College - Augusta State University Sports Complex,Wrightsboro Rd - Valley Park East,9,0
12,33.47007668636407,{E60364DA-2D1C-46E6-B4EA-550FC2DBC88C},-82.05268894464497,Shopping - Restaurants,Wrightsboro Rd - Wrightsboro Plaza,10,0
12,33.4702133980712,{3F11B6CA-D4B2-40D4-8B73-650C55CE0451},-82.0493401873663,Convenience Store - Newman Tennis  Center,Wrightsboro Rd - Damacus Rd,11,0
12,33.47021525161186,{063F1CA3-C656-4E1A-AA37-46A77EB5316C},-82.04662754034311,Residential - Airport Runway,Wrightsboro Rd - Magnolia Dr,12,0
12,33.46958577174879,{D4974CF5-84D2-4B3F-85A5-7A3AFE0F619B},-82.03888177742751,Residential - Banking - Shopping,Wrightsboro Rd - Pine Needle Rd,13,0
12,33.46912446229689,{B9E87E76-B0CA-4CD9-B481-5B469BB58EA7},-82.03346868323304,Shopping - Medical - Airport,Wrightsboro Rd - Across Daniel Field Shopping Center,14,0
12,33.46869126887976,{6E5839D4-7C3A-4416-9BF3-9E362E81112B},-82.02845347990599,Commercial - Residential,Wrightsboro Rd - Monte Sano Ave,15,0
12,33.46852543950018,{54C50218-F364-4E01-AC64-CFE70C456073},-82.02654339715231,Medical - Residential - Business,Wrightsboro Rd - VA Hospital,16,0
12,33.46830083763395,{DCB3F910-7B71-492D-9020-EB68857FF9E9},-82.02417394018235,Residential - VA Hospital,Wrightsboro Rd - Whitney St,17,0
12,33.46804444861759,{1CF7DCB5-6500-4581-AEB7-F913349F268D},-82.02161664168035,US Post Office - Residential - Medical,Wrightsboro Rd - Stovall St,18,0
12,33.46767944029995,{8F5CA22E-4A17-4842-A679-039A9110D1E9},-82.01821610549072,Trinity Hospital - Summerville - Residential,Wrightsboro Rd - Winter St,19,0
12,33.46731630608629,{A5E61B26-D1AB-4761-BCA1-64A2449122A0},-82.01477956398034,Residential - Summerville,Wrightsboro Rd - Troupe St,20,0
12,33.46692317750977,{D704F5CC-5077-4952-ABA5-77E0318A0FCD},-82.01081323167266,Residential - Summerville,Wrightsboro Rd - Heard Ave,21,0
12,33.46657092125383,{7FBCCCE0-605A-49C2-A404-A166082AE2F6},-82.00756417175226,Residential - Summerviille,Wrightsboro Rd - Morris St,22,0
12,33.46633325445868,{AF1A598E-BF1F-4325-9519-38429D1A4013},-82.00540882491106,Residential - Bessies Child Care,Wrightsboro Rd - Baker Ave,23,0
12,33.46616392148663,{A11F5B6A-7653-4A7D-85D6-B4E0211C17F9},-82.00369985634843,Residential - Macedonia Baptist Church,Wrightsboro Rd - Jordan Rd,24,0
12,33.46581937825894,{71CC6A0C-83B3-437C-81D1-E4543260CBA7},-82.00019057584819,Residential,Wrightsboro Rd - Holden  St,24,0
12,33.46596565678291,{00F041D5-33EE-45C9-B7B7-A7D88CAEF84A},-81.99679030450288,Shepeard Blood Center - Solo Cup - Residential,Druid Park Ave - Wrightsboro Rd,26,0
12,33.4678733610846,{EF6308CF-6C09-4067-9F56-054A1016384D},-81.99660969086524,Residential - Paine College,Druid Park Ave - Central Ave,27,0
12,33.47049547302985,{A137ADA6-1D23-49B4-90AB-C6398E8DFF95},-81.99644022614383,College - Gymnasium,Druid Park Ave - Paine College,28,0
12,33.47130615516421,{DAB4CC78-840D-4D45-9BCC-6C8729906CDE},-81.99485245515773,Paine College - Commercial,Laney Walker Blvd - Emmett St,29,0
12,33.4708433682019,{9C93F59D-BF53-408D-B85D-A529666AB9B9},-81.99358477647199,Medical District,Laney Walker Blvd - Chafee  Ave,30,0
12,33.47113794219139,{BD40ACED-5649-4BFE-82F8-26B89ED0089C},-81.99121263859352,Medical District - MCG College - Hotel,15th St - MCG Parking Deck,31,0
12,33.47320305808394,{9271F3EC-679F-4FFE-8B20-5D8A6E770952},-81.98931382222284,Medical District,15th St - VA Hospital,32,0
12,33.47504342552053,{2F7D69D2-28AA-485A-9749-C9C5B12996A3},-81.98744169874976,Commercial - Wachovia - CVS Pharmacy,15th St - Walton Way,33,0
12,33.47660367380188,{F372F41C-2AF6-467A-9136-2EE370153E51},-81.98584978340797,Medical District  - Commercial - Kroger,15th St - MCG Administration,34,0
05,33.48221360389627,{D96B936B-6820-4A9D-ADF7-A785283C2138},-81.98639839607297,Commercial  - Residential - Across from Facilities Maintenance,Broad St - UHAUL,2,0
05,33.48327931956604,{AA6D236B-E6BE-4508-82D4-6EF7CFC635F1},-81.98967551158667,Commercial  - Across from Former School,Broad St - Kings Miill - Goodrich St,3,0
05,33.48451723177713,{AD8A0F53-9496-4597-816E-2F928DF7ADB1},-81.99335119105335,Commercial - KROC Center,Broad St - Crawford Ave,4,0
05,33.48550033994082,{E1E17B84-59F6-4AA4-9D54-7E59E014CA70},-81.99629444569409,Residential - Business - Howards Appliance,Broad St - Eve St,5,0
05,33.48635016544131,{54475337-BA00-4438-99BE-84EC06781065},-81.99883705368215,Residential - Neighborhood Business  - Family Dollar,Broad St - Currry St,6,0
05,33.48704355022078,{D76BB7AC-4050-4B27-8176-3E966B08DF70},-82.00085556237441,Restidential - Neighborhood Business,Broad St - Westview Ave,7,0
05,33.48796342967717,{C51F97D4-67EB-42D2-AD53-9798B84B593D},-82.0032734610253,Residential - Neighborhood Business,Broad St - Wood St - Olmstead Homes,8,0
05,33.48883261843254,{0C9004C8-B4F5-4E84-B283-DED76A2994AE},-82.00500023193828,Convenience Store Residential,Broad St - Milledge Rd,9,0
05,33.49054098559508,{1CA41473-EB2C-4280-AECD-5C9DE051EAE9},-82.0079342289087,Hal Powell Apartments - Julian Smith Casino Park - Disc Golf - Residential,Broad St - Lake Olmstead,10,0
05,33.49621978604544,{CFABB879-2A2E-4FDC-9E0D-1A51631E09AF},-82.01076052964986,Residential - Neighborhood Business,Washington Rd - Lakemont Dr,11,0
05,33.50015011076773,{46F2758D-C9B4-4291-B016-F1E5DBDDC0BC},-82.01237331937254,Residential,Washington Rd - Woodbine Rd,12,0
05,33.50186888190281,{42B4C3DF-4F15-4915-B36F-12449F99F7FE},-82.01386273885763,Residential,Washington Rd - The Greens Apartments,13,0
05,33.50321610651606,{5E7123E7-CB9E-4C60-8CE4-2A2B75B04D9C},-82.01496809191343,Commercial - IHOP Restaurant,Washington Rd - Former Shopping Center,14,0
05,33.50496499975883,{E8B316F9-1C00-479D-BF5B-90C8DC37B207},-82.01665113889267,Commercial - Residential - Scottish Rite Center - Across from Augusta National Golf Course,Washington Rd - Eisenhower Dr,15,0
05,33.50690822906392,{865601F1-3F92-4001-9154-2CC5DD7938EA},-82.01972243693341,Masters Plaza S/C - Whole Life Ministries  - Across from Augusta National Golf Course,Washington Rd - Azalea Dr,16,0
05,33.50854316878486,{5C6061EE-A0CA-4FAD-BCD8-D7E9E9E1DA30},-82.02238649636139,Shopping - Grocery - The Fresh Market - CVS - Windsor Fine Jewelers - Augusta National  Golf Course,Washington Rd - Berckman Rd,17,0
05,33.50929646142221,{8A87B378-3AA6-4596-B9E3-5A127D482E3B},-82.02501416978956,Commercial - National Hills Neighborhood - Church - Pep Boys - Restaurants,Washington Rd - River Ridge Rd,18,0
05,33.51043198232428,{940695C0-E950-45FA-ADD7-77DFFCEC4EE9},-82.03055661932385,Shopping - Restaurants - Commmercial - Grocery,Washington Rd - Washington Walk Shopping Center - Kroger,19,0
05,33.51060611933775,{BDF4BAD0-A1AB-4570-8EFD-C86A0924F702},-82.03183121585948,Commercial - Restaurants - Shopping,Washington Rd - Churchs Chicken,20,0
05,33.51086755090167,{F234423A-7958-481A-99BD-320C22DCA456},-82.03370374306888,Shopping - Fairway Square  - Natural Foods -  Restaurants - Banking,Washington Rd - Bertram Rd,21,0
05,33.51119764492798,{F14B2B3D-C02D-40EE-8166-4E5570EEB885},-82.03612339416888,Commercial - Restaurants - Red Lobster - Zaxbys - Convenience Store,Washington Rd - Sherwood Dr,22,0
05,33.51271774379342,{6FB4EE8B-E26F-478C-86BC-C662DE55BC67},-82.04699566769989,Hotels - Convenience Store - Restaurants - Shoneys - Starrbucks,Washington Rd - Stevens Creek Rd,23,0
05,33.51324211553542,{EBA83701-72C3-4ABE-8411-AA8CCAF7DF7F},-82.05059869403219,Commercial - Restaurants - Rineharts - Burger King - High School,Washington Rd - Patriots Way,24,0
05,33.51360953549055,{DFCAD831-DB33-4CEA-B8B5-49F51C3A447F},-82.05305190563772,Shopping - Across from Picadilly Square - Restaurants,Washington Rd - Skate Rink Entrance,25,0
05,33.51416464409811,{7D9F5D62-C155-44FF-8BC8-CAA7554DD2F1},-82.05687267064533,Shopping - Village West S/C,Washington Rd - Beverly Heights Dr,26,0
05,33.51496454223876,{05491149-1551-48B8-B90D-6E90376F1DEC},-82.06224786413911,Commercial - Residential,Washington Rd - Warren Baptist Church,27,0
05,33.51558002500053,{F625688F-8429-4D08-BFF9-960CA157055C},-82.06617618232966,Shopping - Washingtons Corner S/C - Restaurants - Longhorn Steakhouse - California Dreaming,Washington Rd - Cherry St,28,0
05,33.51603398172905,{9ADFC712-05E9-4F1B-95E0-2A828EAC515D},-82.06926141777697,Shopping - Le Pavilion S/C - Convenience  Store - Wife Saver Chicken,Washington Rd - Pleasant Home Rd,29,0
05,33.51204223845404,{91A44A07-2815-40B0-B37F-F12EA7C2F368},-82.08580981847304,End of Line Shopping - West Town S/C -Banking - McDonalds - Kmart,EOL Davis Rd - Washington Rd,30,0
05,33.50497534411401,{1098A126-CE88-478C-8D7D-58FC7A7D62AF},-82.08294259677179,Commercial - Banking,Davis Rd - Camilla Ave,2,0
05,33.50190181365207,{D4281BD9-A087-4A40-97BB-B64F6F82AADD},-82.08324708418594,Business - Medical - The Snug Restaurant,Davis Rd - Paul Ln,3,0
05,33.50086885763299,{F04D7848-9953-46D9-BFA0-CD68A9E00D44},-82.08068610939948,Medical - Commercial  - Royal Pain Center,Pleasant Home Rd  - Professional Pkwy,4,0
05,33.50276110181045,{F1F6DB73-FD9E-4459-84E8-99069CD25D03},-82.07757003054142,Residential - Foxhall Neighborhood,Pleasant Home Rd  -  Foxhall Dr,5,0
05,33.5046632812969,{4FE84CCC-EDD4-4BB4-B4BF-03F72576CBA6},-82.07426491329116,Residential - The Place Nursing and Rehabilitation - Sugar Milll Woods Neighborhood,Pleasant Home Rd  -  Sugar Mill Rd,6,0
05,33.5069241452732,{5BD43267-DE4D-4E9F-BE76-1DA6049A1412},-82.07275540153714,Residential - Ravenwood Neighborhood,Pleasant Home Rd  -  Ansley Ct,7,0
05,33.5102165918357,{45D19642-CB7C-4B36-B445-C22713789A92},-82.07171025287033,Residential - Montclair Neighborhood,Pleasant Home Rd  -  Crane Ferrry Rd,8,0
05,33.51278134746669,{ACAEF069-60B1-4BB5-8555-A49D1F1A2368},-82.07098779788528,Residential - Neighborhood Business - Pineview Baptist Church,Pleasant Home Rd  -  Davant St,9,0
05,33.51575471127838,{4FFBFB23-99A0-40A9-9409-0B866C8CDA22},-82.06929106359019,Shopping - La Pavilion S/C - Wife Savers Chicken,Washington Rd - Clark St,10,0
05,33.51541617785601,{57FEA61D-7D72-4164-A0E6-C9085C0E7683},-82.06668133812141,Commercial - Residential - Woodbiine West Neighborhood,Washington Rd - Heatherwood Pkwy,11,0
05,33.5144355346893,{1F5929A7-2109-4E18-9BEB-74F111ADE857},-82.06027236450325,Commercial - Residential - Church  - Montclair Neighborhood - Villlage West S/C,Washington Rd - Kings Chapel Rd,12,0
05,33.51342802972809,{E561DE62-B089-4661-9CF4-D537D0FC39A0},-82.0534529610032,Shopping - Restaurants,Washington Rd - Picadilly Square S/C,13,0
05,33.51305068332747,{A2A77FA9-6B4D-40EC-B72F-13CF8AAAD8C2},-82.05099892936835,Commercial - High School  - Restaurants - Mi Rancho - Burger King,Washington Rd - Patriots Way,14,0
05,33.51253434989518,{9D59A01D-7F36-4F11-88FA-F791A52865A7},-82.04736173864258,Hotels - Commercial - Restaurants - Dennys - Starbucks,Washington Rd - Stevens Creek Rd,15,0
05,33.5107935160579,{A41B38D9-1928-41AC-BD47-21230C2DC712},-82.0345362551016,Shopping - Restaurants - Stein Mart - Books a Million  - Hooters,Washington Rd - Washington Square S/C - Carrabas Italian,16,0
05,33.51046815885882,{D8234B31-4E63-4989-826B-D77858040998},-82.03225531721928,Shopping - Restaurants - Somewhere In Augusta  Bar and Grill,Washington Rd - Subway Subs,17,0
05,33.5100497355796,{1F94046A-36B4-4770-9071-0C76F3F6FB28},-82.02925184067257,Shopping - Grocery - Pharmacy - Restaurants,Washington Rd - Stanley Dr,18,0
05,33.50907333422728,{CCA83BDE-AC6A-4F5D-BFDD-D945D21470B6},-82.02504159808821,Commercial - Restaurants,Washington Rd - Pep Boys,19,0
05,33.50790965236323,{9A78A239-9F59-411F-9348-E6C54BF7F641},-82.02167469138784,Shopping - Across from Windsors Fine Jewelers - Grocery - Fresh Market - CVS,Washington Rd - Berckman Rd - Augusta National Golf Course,20,0
05,33.50663143137097,{34C46189-3A89-4C9A-B6B6-CA124A675659},-82.01966776176468,Commercial - Augusta National Golf Course,Washington Rd - Azalea Dr,21,0
05,33.5049611608176,{6C5E07FF-6218-4458-A568-836955A1468D},-82.01704620166719,Commercial - Residential - Augusta National Golf Course,Washington Rd - Eisenhower Dr,22,0
05,33.50341288174574,{A4CAE065-6BA2-4C1A-8957-D728E5B248CD},-82.01545074682494,Commercial - Golf - Across from IHOP,Washington Rd - Augusta National Golf Course,23,0
05,33.50199523568926,{2C2D6E35-DA99-4F82-AA9C-A27BFE8EC5D3},-82.01425829762476,Residential - The GreensApartments,Washington Rd - West Vineland Rd,24,0
05,33.49977262611969,{FCE3D2C5-CD4B-4338-994D-ABC8EAFF8A8D},-82.01235689779577,Residential - St Marks United Methodist Church,Washington Rd - East Vineland Rd,25,0
05,33.49577214726404,{6C962555-D281-41A8-B5BC-7BAD5CE34291},-82.01086713262536,American Willderness Outfitters - Residential,Washington Rd - Lakewood Dr,26,0
05,33.49017990797283,{5DCCCE3E-7501-4436-95A7-F5814F060225},-82.0083693035745,Hal Powell Apartments - Lake Olmstead - Disc Golf - Julian Smith Casino Park,Morningside Dr - Broad St,27,0
05,33.48833020524165,{BCCD5CE2-6028-498E-A229-A054F00E26E6},-82.00434936792759,Green Jackets Stadium  - Residential - Olmstead Homes Public Housing,Washington Rd - A St,28,0
05,33.48762370587106,{EE8FCE45-5ADA-4FEC-A24A-2F636208527F},-82.00287584984702,Residential - Neighborhood Business  - Catholic Social Services - BMX Park,Broad St - Tubman St,29,0
05,33.48689891941076,{4667A693-23BE-45CD-AC0D-5AD2EECB39CD},-82.0008919424386,Church - Residential - Neighborhood Business,Broad St - Westview Ave,30,0
05,33.48629299108114,{023E95A8-247A-4F2C-9BB0-CDCE633D8F2E},-81.9990747010141,Residential - Neighborhood Business,Broad St - Lockhart Ln,31,0
05,33.48533698348417,{49AA44DA-745A-43A3-AE3F-C76934909C49},-81.99621446263961,Residential - Neighborhood Business - KROC Center,Broad St - Eve St,32,0
05,33.48423943400425,{651DF66E-FCDF-44A6-9B9E-F19610366B58},-81.99294941910512,Residential - Bsiness - KROC Center,Broad St - Crawford Ave,33,0
05,33.48314960468345,{7B1D79F5-C5C8-446B-BD01-620544FAB8F9},-81.98968255852731,Residential - Industrial  - King Mill - Standard Textiie,Broad St - Former Martha Lester School,34,0
10,33.48406200799056,{7D1A9CE0-71E3-4463-AD58-DECEB2B7FFD5},-81.99378749557239,Residential - Historic Ezekiel Harris House - KROC Center,Crawford Ave - Welsh Ln,5,0
10,33.48162902093273,{667FE865-D200-4251-8806-2FEF380813A0},-81.99494571121856,Residential - Crawford Baptist Church - Harrisburg  Neighborhood,Crawford Ave - Telfair St,6,0
10,33.48021079910543,{B9B51ED8-2D6F-4338-9BDC-AD5639F9990A},-81.99558642601645,Residential - Bethel AME Church - Harrisburg  Neighborhood,Crawford Ave - Wilhelm Ln,7,0
10,33.47854938237379,{4957EC5C-551C-494D-BAA4-B3CF29634F21},-81.99643000921884,Residential  - Harrisburg  Neighborhood,Crawford Ave - Fenwick St,8,0
10,33.47932179161045,{D1F6547C-CB2E-4960-B08D-E25ED49DE2FB},-81.99883741047553,Residential - Harrisburg  Neighborhood - Bible Deliverance Temple,Fenwick St -  Eve St,9,0
10,33.48054408603372,{B03D513A-3A50-403E-A0DF-018047614B24},-82.0019701417755,Residential - Harissburg,Fenwick St -  Metcalf St,10,0
10,33.48201910705414,{E298C239-E9C6-4588-A49E-FB8043A1BB8C},-82.00161949864031,Residential - Harissburg,Metcalf St - Battle Row,11,0
10,33.48314469992885,{9C68177D-24A1-4A6C-865F-FF6869849B93},-82.00185022070528,Residential - Harrisburg,Metcalf St - Gardner St,12,0
10,33.48280886893094,{A0BC11EA-4677-478D-B2F8-EEE36FD6F898},-82.00370238812462,Residential - Harrisburg,Gardner St - Carr St,13,0
10,33.48203744463406,{8130E21E-21B5-4ABC-8CEF-C306C4705624},-82.0058232544089,Residential - Church of God of Prophecy,Gardner St - Hickman Rd,14,0
10,33.48100660356613,{1ACCCD19-42FC-4A99-8C5B-A664F579811A},-82.01044339533281,Residential - Summerville - August Country Club,Gardner St - Milledge Rd,15,0
10,33.48163994978199,{D368DE30-8C9B-4511-93CB-2570E7820135},-82.01255105251069,Augusta Country Club Tennis Court - Residential,Gardner St -Montrose Ct,16,0
10,33.48241466110017,{8D23B851-BC30-49B1-8F7E-A4DFECC533F7},-82.01514447660041,Residential,Gardner St - Johns Rd,17,0
10,33.48153629379959,{1BF6E4A5-3FEC-402A-8824-0C2663811F31},-82.0168710851503,Residential - Summerville Cemetery,Mt Auburn St - Harford St,18,0
10,33.48169801888263,{E291538D-1205-47FF-AA59-6A7ED88F204D},-82.01903739857957,Residential - Elim Baptist Church,Mt Auburn St - Katherine St,19,0
10,33.48199017445889,{526760E6-053B-4473-8CC2-1EE916BDBFA6},-82.02216954364305,Residential - Sand Hills Community Center,Mt Auburn St - Fleming Ave,20,0
10,33.48134384332361,{18C81953-A671-4E0D-85E0-047165F27DD1},-82.02294155546976,Residential,Northview Ave - Fleming Ave,21,0
10,33.48162084108716,{B1865F05-8A71-4146-87D9-887BE9C7A752},-82.02669156419496,Residential - Summer Place Apts,Northview Ave - Monte Sano Ave,22,0
10,33.48316120302539,{332338B2-1CE8-4C6A-8CCD-73B45AF834B3},-82.02656571726291,Residential - Walton Point Apts,Monte Sano Ave - Hazel St,23,0
10,33.48388792692678,{65CB9C57-E556-4B0C-BE4A-54E591359843},-82.02649300093211,Residential - Neighborhood Business  - Everlasting Granite and Marble - Church  - Cemetery,Monte Sano Ave - Wheeler Rd,24,0
10,33.485253371646,{2C1431E7-A804-401F-9E83-1A1509EE9765},-82.03072010309049,Shopping - White Horse Liquor Store - Talbots - Tacosushi - French Market Grill - Convenience Store,Wheeler Rd - Surrey Center,25,0
10,33.48517195360584,{626A2820-05C6-4907-A692-2F7A20A3E3AA},-82.03299806979685,Residential,Wheeler Rd - Downing St,26,0
10,33.48534810915473,{020046CA-B0A9-4585-8E76-7B14FA9FAF0D},-82.03587363013732,Neighborhood Business - Laundromat - Recreation - Residential,Wheeler Rd - Big Oak Park,27,0
10,33.48597887073746,{24407AAC-6276-4A5B-87AA-8AD28A0284AB},-82.03795167308243,Residential,Wheeler Rd - Jefferson Dr,28,0
10,33.48673519511159,{CB55EDD2-505F-4820-9346-220815A29193},-82.03940293086848,Residential - Convenience Store,Wheeler Rd - Joy Rd,29,0
10,33.48716262505833,{419746C0-04CE-454A-8198-33676961EA21},-82.04018586886797,Commercial - Vacant Lot,Wheeler Rd - Convenience Store,30,0
10,33.4885207938195,{E1394327-B3D6-469D-A464-C0F8DAF0E8D8},-82.04271866442461,Residential - School,Wheeler Rd - Westminister School,31,0
10,33.48978034211509,{3A0E2A06-66AB-458D-8C8E-FB1CD099E0D0},-82.05120438092594,Residential - Brynwood Neighborhood,Wheeler Rd - Aumond Rd,32,0
10,33.48776828755506,{FA828B98-3CB2-4122-8862-2D0A4A8DAD61},-82.07291289148748,Shopping - Commercial,Wheeler Rd - Walton Way Ext,33,0
10,33.487143639467,{33CE203C-24C6-404B-B279-DC0491B40BDB},-82.07790628239604,Shopping - Entertainment - Banking,Agerton Ln - Regal Movie Theater,34,0
10,33.49433077969962,{94EA3F41-4356-499F-8465-039D54072952},-82.07650905978909,Social Security Benefits,Social Security Administration - Robert C Daniel Pkwy,35,0
10,33.49102217167454,{71271A5C-E594-4952-A619-CEACCA93C3BF},-82.08096892436052,Shopping - Old Navy - Bed Bath and Beyond  - Michaels - HH Gregg,Pet Smart - Target,36,0
10,33.48692262660509,{59BCE902-7C0F-4A33-A6DE-27EFF1AAC8D8},-82.08107027126678,Shopping - Mens Warehouse - Pier 1 Imports - Restaurants - Atlanta Bread Co - more,Robert C Daniel Pkwy - Borders Books,37,0
10,33.48307032671658,{260D1B9E-46D1-40D5-80FB-F79A716B5DF4},-82.08774233367332,Medical District - Across from Waffle House,Wheeler Rd - Perimeter Pkwy,38,0
10,33.48546149097079,{F25E887E-62A6-42BB-A0C5-037BCEAE8264},-82.09453034242675,End of Line Medical  - Hospital,EOL - Doctors Hospital Entrance,39,0
10,33.48257169890312,{27DF7BBF-FD9C-4222-B6D8-BC92CD1EBA0B},-82.0885068239179,Medical District,Wheeler Rd - George C Wilson Dr - 3632 Medical Bldg,2,0
10,33.48441657361163,{C26355FD-1ABF-4B7A-93E1-DFDFA59A0370},-82.07954537413941,Recreation - Business  District,Wheeler Rd - The Family Y,3,0
10,33.48519304289832,{19780AE9-D1BE-4F2F-85D7-4CC402834B4B},-82.07775259033593,Business District - Shopping  - Across from Augusta Exchange SC,Wheeler Rd - Wheeler Executive Center,4,0
10,33.48795576683512,{A7824B9B-3A1D-42B6-A862-E66397B83FB5},-82.07212679002745,Vacant Lot - Residential,Wheeler Rd - Walton Way Ext,5,0
10,33.48979712960402,{C81DF512-8A61-47E8-9793-C9AEE3C09730},-82.05153680285463,Residential - Brynwood Neighborhood,Wheeler Rd - Aumond Dr,6,0
10,33.48677166111298,{888D6B70-C7C9-4C9B-A6E7-08B03A6A6147},-82.03981867503435,Convenience Store  - Residential,Wheeler Rd - Bransford Rd,7,0
10,33.4858679062556,{5162FE5E-2CF5-4218-9082-5CCE4ED35656},-82.03802888120647,Residential,Wheeler Rd - Jefferson Dr,8,0
10,33.48520065035319,{3BB16D6D-F2D5-4C05-B0CD-6AE13DCE3721},-82.03593233488934,Neighborhood Business - Recreation - Park,Wheeler Rd - Big Oak Laundromat,9,0
10,33.48504861607602,{55CA99B9-F5A5-44C1-9BA6-32A3A12F1297},-82.03302283814739,Residential,Wheeler Rd - Downing St,10,0
10,33.48526091276898,{06F027DA-BD0D-40A8-8CB4-AB92B9E7BA2D},-82.03147409943003,Shopping - White Horse Liquor Store - Talbots - Tacosushi - French Market Grill - Convenience Store,Wheeler Rd - Surrey Center Entrance,12,0
10,33.48397281569876,{38B6B740-829D-47AA-B820-9F66C39EF83E},-82.02664500750801,Cemetery - Residential,Wheeler Rd - Monte Sano Ave,12,0
10,33.48162846264057,{51D89966-9C8A-4D0C-BFAB-ED8832FB3757},-82.01909076190162,Residential,Mt Auburn St - Katherine St,13,0
10,33.48146388961658,{5DDA8E36-1E57-45FD-A7BF-164882F7F06A},-82.01719410648845,Residential - Summerville Cemetery,Mt Auburn St - Harford St,14,0
10,33.48133879524101,{CD83E43D-8C8D-4D93-94C9-18CA67C0CF76},-82.01555909137693,Summerviille Cemetery - Church - Residential,Mt Auburn St - Johns Rd,15,0
10,33.48235465467344,{73D928BD-72B4-41DF-B3B7-66234BF5C741},-82.0152450131651,Residential,Gardner St - Johns Rd,16,0
10,33.48154569288307,{342CE74A-080F-4D85-B6D9-86016D14913F},-82.01253752426425,Augusta Country Club - Residential,Gardner St - Montrose Ct,17,0
10,33.48096501217815,{139A5DC4-58BB-4842-94A1-21E884135109},-82.01067943466963,Augusta Country Club - Residential,Gardner St - Milledge Rd,18,0
10,33.48186314207267,{B99AB072-5DC3-4EDD-87CA-3FDEAF8079AD},-82.00588499690473,Summerville - Residential,Gardner St - Heard Ave,19,0
10,33.48269651598805,{64905C1A-64B1-4F04-AC84-479FBB77094D},-82.00373551159599,Residential - Harrisburg Neighborhood,Gardner St - Carr St,20,0
10,33.48312527086909,{E89A7D5C-BB27-408D-9130-4B2200C6AC35},-82.00200288303898,Residential - Harrisburg Neighborhood,Gardner St - Metcalf St,21,0
10,33.4821721145049,{FE3C9527-CD96-46AA-B779-C7EA9717687B},-82.00171260923206,Residential - Harrisburg Neighborhood,Metcalf St - Battle Row,22,0
10,33.48058485723122,{6D94E2E3-5706-4906-887A-93CD39616895},-82.00204571204081,Residential - HarrisburgResidential - Harrisburg Neighborhood,Metcalf St - Fenwick St,23,0
10,33.47930480980675,{F6AD6A27-9821-4E33-8E0A-7420A2375F46},-81.99909746610192,Harrisburg Family Center - Residential - Harrisburg Neighborhood,Fenwick St - Eve St,24,0
10,33.478432064519,{45DD88D1-E347-41C3-A06B-3BEFA0601BC5},-81.9965288459818,Mercy Ministries  - Residential - Harrisburg,Fenwick St - Crawford Ave,25,0
10,33.48042316813581,{261B8BFC-3E8A-4B16-B1A5-B4CA5FCBCD57},-81.99536035202488,Crawford Ave Baptist  - Residential  - Harrisburg,Crawford Ave - Walker St,26,0
10,33.48140812275595,{AFFB1C6D-B724-424F-8EB7-B4B4C8B9B708},-81.99489539862677,Church  - Residential - Harrisburg,Crawford Ave - Telfair St,27,0
10,33.4838093693287,{B8C3B3BA-8803-4BFF-8D23-9C80D8F95DD9},-81.99375208082968,Central Christian Church - Residential - KROC Center,Crawford Ave - Welsh Ln,28,0
06,33.48150313944257,{6E7E4CED-6FAB-4D5E-88E8-F29D1F3D7AF0},-81.98510076416402,End of Line Main Transfer Facility - Broad St,EOL Main Transfer Facility - Broad St - 15th St,50,1
01,33.4808176900928,{012A5B81-A893-4BCF-AE8B-A78A377CBAEE},-81.98272794332856,Downtown - Broad St - 15th St at Augusta Canal,Broad St - 15th St,2,0
01,33.47949350601213,{71B612E2-3432-4BD6-AFBE-40EA7EF27ED1},-81.97856751288872,Downtown - Parking Lot for Curtis Baptist Church and Schools,Broad St - 14th St,3,0
01,33.47867345594157,{267A54DF-46C3-426E-AABB-3A0E292C265C},-81.97600293692622,Downtown - Curtis Baptist Church and Schools,Broad St - 13th St,4,0
01,33.46830359058615,{1B4BA0C3-4AB0-4AB0-A6BD-DE6D9B70D8AC},-82.04977724400614,University Village,Damascus Rd - Jaguar Way,1,0
01,33.47895921108903,{1FDA9EBF-C614-42E6-9E5F-F2B744D1260E},-81.97575839661106,Downtown - Kendricks Paint and Body - Across from Curtis Baptist Church and Schools,Broad St - 13th St,33,0
01,33.47993740321011,{FD64B4BF-A58A-44F5-AFFA-4AC60EA75B7D},-81.97881240777092,Downtown - St Sebastian Way,Broad St - 14th St,34,0
01,33.48085073365812,{3CDEB873-ECF0-42D8-8301-CE9EE33473EF},-81.98165547669413,Downtown - Streeter Printing - Convenience Store,Broad St - 15th St,35,0
04,33.44087542437701,{F2A2A9F9-0B00-4AD9-9216-AE731AADD97D},-82.02070438266965,EOL Kmart Shelters - McDonalds - Shopping,EOL Transfer Shelter - Deans Bridge Rd - Kmart,46,1
04,33.44454931724589,{6C2BF57F-F96F-4976-A892-F9E2CA5A4EBE},-82.01563693755136,Jim Whitehead Tire Center - Augusta Estates Mobile Home Park,Deans Bridge Rd - Cherry Rd,47,0
04,33.47685283873938,{DD7AC666-11A5-4039-9E95-069EB21E93ED},-81.96950135167684,Dept of Juvenial Justice - Restaurants - Shopping - Downtown,Broad St - 10th St,7,0
04,33.47732848201488,{7A078EDB-17CE-4C0B-8EEB-E6087A9829EC},-81.97091186970549,Downtown - Restaurants - Shopping - Metro Coffee - Augusta Genealogical Soc,Broad St -11th St,6,0
04,33.47790917745674,{BE79F28D-1188-481C-B450-35A526E8B8A2},-81.97249528476296,Mellow Mushroom  - Sunshine Bakery - Downtown - Restaurants - Shopping,Broad St - 12th St,5,0
04,33.47895921108903,{13AA2D0B-B912-4356-83CE-5055E2E9D436},-81.97575839661106,Downtown - Kendricks Paint and Body - Across from Curtis Baptist Church and Schools,Broad St - 13th St,4,0
04,33.47993740321011,{9FB969C8-BE6B-4C46-A84A-45FA5B425695},-81.97881240777092,Downtown - St Sebastian Way,Broad St - 14th St,3,0
04,33.48085073365812,{7BE095AE-507B-4F11-AF26-90C9E1470B6A},-81.98165547669413,Downtown - Streeter Printing - Convenience Store,Broad St - 15th St,2,0
04,33.48150313944257,{96D1AB65-FC10-4303-8794-FB6C6B4D6FFF},-81.98510076416402,Main Transfer Facility - Broad St,Main Transfer Facility - Broad St - 15th St,1,1
04,33.43988887711063,{6F735818-829D-4A1E-AB78-C2915901B1C0},-82.01255649699772,Grocery,Tubman Home Rd - BI-LO,1,0
04,33.46634409390494,{A4A1CF99-2B2D-4862-8C36-A288E5F5A7E8},-81.96743787144665,Residential  - Warehouses,7th St - Taylor St,27,0
04,33.48150313944257,{29FBB19B-B5D3-41F6-B1AF-E3E0042CF83A},-81.98510076416402,End of Line Main Transfer Facility - Broad St,EOL Main Transfer Facility - Broad St - 15th St,38,1
03,33.48150313944257,{00B068ED-D400-46CA-B65C-3796762E9A64},-81.98510076416402,Main Transfer Facility - Broad St,Main Transfer Facility - Broad St - 15th St,1,1
03,33.4808176900928,{1C0B2310-4DCB-4AB2-8F0A-105438B249D9},-81.98272794332856,Downtown - Broad St - 15th St at Augusta Canal,Broad St - 15th St,2,0
03,33.47949350601213,{07E39819-F7A0-49C0-9CA8-F1F6788A9E1F},-81.97856751288872,Downtown - Parking Lot for Curtis Baptist Church and Schools,Broad St - 14th St,4,0
03,33.47867345594157,{A16323F9-CDF8-49D2-A84C-EBE6482D78D2},-81.97600293692622,Downtown - Curtis Baptist Church and Schools,Broad St - 13th St,5,0
03,33.47750072625579,{F56F3C54-B904-46D2-B4AB-B51D438B990B},-81.97238472739663,Downtown - Downtown Dental and Mellow Mushroom,Broad St - 12th St,6,0
03,33.47692733125745,{15AD1FA2-70AE-4817-B0FD-7B38A729C829},-81.97075118139205,Downtown - United Loan and APEX Finance,Broad St - 11th St,7,0
03,33.47962739172626,{22C102DE-3DDF-4A4E-9E1B-AC7D7A70700E},-81.98298061477725,Downtown - Greene St,15th St - Ellis St,37,0
03,33.48150313944257,{23487081-7B02-4793-A68E-AE426B91F4A9},-81.98510076416402,End of Line Main Transfer Facility - Broad St,EOL Main Transfer Facility - Broad St - 15th St,38,1
16,33.44087904541413,{721B64A9-3BE4-480B-A76F-2F7EC8DA9FC1},-82.02071462320387,Kmart Shelters - McDonalds - Shopping,Transfer Shelter - Deans Bridge Rd - Kmart,1,0
16,33.44087542437701,{2D50B0C8-10D5-4555-8A76-6CCD7D465769},-82.02070438266965,EOL Kmart Shelters - McDonalds - Shopping,EOL Transfer Shelter - Deans Bridge Rd - Kmart,30,1
05,33.48150313944257,{C074412D-280D-4AC8-8AC4-4204D4766116},-81.98510076416402,Main Transfer Facility - Broad St,Main Transfer Facility - Broad St - 15th St,1,1
05,33.51204223845404,{8F385DFE-3BDC-44A3-9EA8-84C2B71CDBFC},-82.08580981847304,Shopping - West Town S/C -Banking - McDonalds - Kmart,Davis Rd - Washington Rd,1,0
05,33.48150313944257,{F2E3BF20-A4CB-460D-9DE5-F0102385A1C7},-81.98510076416402,End of Line Main Transfer Facility - Broad St,EOL Main Transfer Facility - Broad St - 15th St,35,1
13,33.44050494891065,{42419B46-385E-4688-8931-89F601F7BEA6},-82.02724746179554,Commercial - Pep Boys - Restaurants  - Shopping,Gordon Hwy - Kissingbower Rd,2,0
13,33.44316301537916,{1E750538-F001-436F-8267-4F138D02EA43},-82.02908109572546,Commercial - Banking - Shopping  - Gordon Village,Gordon Hwy - Thomas Ln,3,0
13,33.44578626511015,{0C86B6D9-5682-4C67-9582-F09DA5D6CD04},-82.03049249503734,Shopping - Commercial,Gordon Hwy - Gordon Village SC,4,0
13,33.44758929086313,{29E37731-9B92-4A2D-9B44-CFE7BC06C0C4},-82.03303301965919,Commercial -UHAUL - Kiddies Kingdom,Milledgevillle Rd - Hopie Rd,5,0
13,33.44793167605233,{BD09B795-20E7-486E-AD39-C9D06CA9643C},-82.0386577166604,Commercial,Milledgevillle Rd - Crepe Myrtle Dr,6,0
13,33.44804765081756,{91212902-5212-4244-BCA0-E67F4082D99A},-82.0410524851838,Commercial - Residential,Milledgevillle Rd - Wilkinson Cir,7,0
13,33.44820063405056,{11AE7E7A-EB97-4050-92DE-8FCFE598D8AD},-82.04433330085283,Residential - Apartments - Fairview Missionary Baptist Church,Milledgevillle Rd - Belmont Ave,8,0
13,33.44768861764438,{7F932812-A0E2-487E-8BCC-A553B8068D5B},-82.04643776156073,Commercial - Laundromat,Wheeless Rd - Milledgevillle Rd,9,0
13,33.44502010811242,{6AA161F3-EDB8-4591-8A77-7579984D7399},-82.04548236789992,Residential,Wheeless Rd - Storey Dr,10,0
13,33.44060929805904,{239AD893-C4D3-478F-B174-0DF33081385E},-82.04335133347411,Residential,Wheeless Rd - Courtney Rd,11,0
13,33.43562287889034,{7EB374B9-7B95-4684-A4FB-820353951EA4},-82.04416368104144,Residential,Wheeless Rd - Thomas Ln,12,0
13,33.43350393616773,{DFE1FE0E-749A-4C62-A522-FFE42E851F77},-82.04451355656633,Neighborhood Business  - Child Care - Residential,Wheeless Rd - 2400 Block,13,0
13,33.43078740824886,{349BE95A-1E14-4387-9722-45B301072BDA},-82.04315348240374,Convenience Store - Commercial,Wheeless Rd - Deans Bridge Rd,14,0
13,33.42516543917899,{79F21E44-D6B2-4386-9BDD-75B7A4C8F7D2},-82.0555376279018,Grocery - Kroger - Shopping,Deans Bridge Rd - Augusta Fire Administration and Training Facility,18,0
13,33.42428073223366,{E15AF9B0-123D-4557-B783-20AD259C5088},-82.0643698062091,Shopping - Southpointe Plaza,Deans Bridge Rd - Walmart - Garden Area,19,0
13,33.42121529936259,{6BE035A9-D18A-4253-9E8C-94E236548246},-82.06519925189201,Commercial,Deans Bridge Rd - The Place Nursing and Rehabilitation,20,0
13,33.42070053877821,{35A4441C-E3CB-4401-A75C-E68B42AF405C},-82.06763538498149,Restaurant -Shopping  - Liquor Store - Across from Dollar General,Deans Bridge Rd - Golden Garden Korean Restaurant,21,0
13,33.42004425073456,{8162121A-DA44-4DB0-B93C-A9D3D826690F},-82.0719041847031,Shopping  - Residental,Deans Bridge Rd - Davis Appliance and Furniture,22,0
13,33.41957402224995,{B719C746-05F7-4B44-B9FD-8CC0EA84BCB2},-82.0753017205619,Shopping - Hotel - Restaurant - Captain Ds - McDonalds - Churchs Fried Chicken - OReillys Auto Parts,Deans Bridge Rd - Spring Grove Dr,23,0
13,33.41923917938652,{9E755DA9-52C9-42A6-A737-D26B1B05DF65},-82.07744062855682,Grocery - Shopping - IGA Grocery - Family Dollar -McDonalds,Deans Bridge Rd - Deans Bridge Center SC,24,0
13,33.4195594211027,{BCD6143F-BB84-4E08-B1D5-F6D6FFD3F388},-82.07930026600177,Grocery - Shopping  - Commercial,Barton Chapel Rd - Deans Bridge Rd,25,0
13,33.42269152481691,{AEDEA90B-639A-462E-B516-51AB1121E4C4},-82.08206716715618,Residential - Laundromat,Barton Chapel Rd - Massoit Dr,26,0
13,33.42505472980858,{DC0D99B8-203E-4FAE-8DF0-751EABB25AB0},-82.08187386301978,Residential - Dogwood Estates - Church - Open Door Baptist,Barton Chapel Rd - Blossom Dr,27,0
13,33.42803440824467,{809A9FFE-D00D-4DBD-B6DF-E2CA70D44305},-82.08233416077118,Residential,Barton Chapel Rd - Glenn Hills Dr,28,0
13,33.43083923189107,{9D2B45F0-89C2-4755-91AD-87DA4D789DC5},-82.08367784608358,Residential,Barton Chapel Rd - Squire Ln,29,0
13,33.43377625317527,{4B1F8422-8BDA-43EE-AD81-B42F3AE14C3F},-82.08516504530941,Residential,Barton Chapel Rd - Old McDuffie Rd,30,0
13,33.43555843074555,{48842DB7-F7E0-4D7F-9352-F79AF34382D0},-82.08605154878902,Residential - Convenience Store,Barton Chapel Rd - Barton  Village Entrance  - London Blvd,31,0
13,33.43559696025518,{C4067FD9-3AA1-452D-AD2C-EB2C453321F8},-82.08789677203734,Barton Village Neighborhood  - Residential,London Blvd - Madrid Dr,32,0
13,33.43594319312138,{12ED41F9-5C00-4733-B04E-DC7C0B53ED37},-82.09135326715601,Barton Village  - Residential,London Blvd - Lisbon Dr,33,0
13,33.43529063558651,{6E5E731A-C7DF-48D9-87DF-2182D22463CC},-82.09282151155573,Barton Village - Residential,London Blvd - Amsterdam Dr,34,0
13,33.43357777309795,{83B79683-D9EE-4559-AB90-C325EF5DA121},-82.09440535794259,End of Line Barton Village - Residential,EOL - Dublin Dr - Belgrade Ct,35,0
13,33.43238296417174,{DD19933E-FC5D-4B2D-BC2E-9664708B0D86},-82.09379985150609,Residential,Dublin Dr - Dublin Ct,2,0
13,33.43025001134949,{55A9A710-057C-46AA-B1A9-17B5E43C8B8B},-82.09353187220718,Residential,Dublin Dr - Madrid Dr 2,3,0
13,33.42763762312953,{A47D8B40-1714-4E48-B835-BE4F13E068B3},-82.09350339752292,Residential,Dublin Dr - 2459 Dublin Dr,4,0
13,33.42483506556013,{3C9AB7B8-981A-483C-B72E-3AEAF087F4D1},-82.09220611298034,Residential,Dublin Dr - Old  McDuffie Rd,5,0
13,33.42625123460744,{338B2320-D8DB-46AF-8AA0-B74D2BD63402},-82.09065012483376,Residential - Church,Old  McDuffie Rd - Gerbing Rd,6,0
13,33.42879799950769,{9A9F5EFF-E1A0-4B1F-8927-0BD23704EB33},-82.08825339300687,Recreation - Residential,Old  McDuffie Rd - Old  McDuffie Rd - McDuffie Woods Community Center,7,0
13,33.43012792439679,{07E217F5-472B-494C-9165-F01E0FE37377},-82.08705481333621,Apartments - Residential,Old  McDuffie Rd - Floyd Green Sr Dr,8,0
13,33.43159161806047,{A7426D52-BEC0-43C8-A7C4-7346E1058154},-82.08679588454423,Residential,Old  McDuffie Rd - Amsterdam Dr,9,0
13,33.43418879165706,{1AF4EE0B-9CDF-4FF1-824B-DDA335D780DC},-82.08579530519862,Commercial,Old  McDuffie Rd - Barton Chapel Rd,10,0
13,33.43090325008767,{8678B81A-C1A1-4EF3-B607-2BFCABCFE275},-82.08394173671701,Residential,Barton Chapel Rd - Squire Ln,11,0
13,33.42847916231263,{2EEFBCA0-2908-4705-BC0E-C9F25251E40B},-82.08273295348599,Residential,Barton Chapel Rd - Glenn Hills Dr,12,0
13,33.42556497863659,{579C32D1-42E8-43D9-A754-7CCD792EE990},-82.0819908677872,Open Door Baptist Church - Residential,Barton Chapel Rd - Blossom Dr,13,0
13,33.42298789804315,{5EA4DAC7-0C71-414A-BCE0-31A627A89BAA},-82.08226246554737,Korean Family Life Center Entrance - Church - Laudromat,Barton Chapel Rd - Massoit Dr,14,0
13,33.41997943227336,{39370AEA-ADD5-48B2-AA1A-FD43BA6FBF32},-82.08011852118146,Commercial - Shopping  - Grocery,Barton Chapel Rd - Convenience Store,15,0
13,33.41896215047614,{F6C00150-FE7F-491E-8822-38BD9A17B3D0},-82.07717842217198,Vacant Lot - Shopping -Across from Deans Bridge Center SC,Deans Bridge Rd - Meadowbrook Dr,16,0
13,33.41921142685722,{CA385D90-4A12-4F6A-91D0-AC38E3DC73F0},-82.07557273317663,Hotel - Commercial - Restaurant,Deans Bridge Rd - Spring Grove Dr,17,0
13,33.41981987914345,{E6FD1C40-99E7-4158-BFE6-DB545C0B7E86},-82.07163647301732,Residential - Shopping - Davis Appliance  and Furniture,Deans Bridge Rd - Villa Marie Apartments,18,0
13,33.4204094056922,{6F7E464A-5257-4790-9797-F68332A47AD3},-82.06784684309737,Dollar General - Shopping - Restaurant - Liquor Store,Deans Bridge Rd - Kensington Dr,19,0
13,33.42174356065096,{0B4B7EF2-32D9-4298-A94A-D86B99B0EECB},-82.06277216305738,Shopping - Restaurant - Across from Southpointe Plaza,Deans Bridge Rd - Caribbean Restaurant - I520,21,0
13,33.43123247656978,{C23CE179-8F4C-4F23-9D90-1E48C8A846EF},-82.04307011793848,Commercial - Barber Shop  - Convenience Store,Wheeless Rd - Deans Bridge Rd,24,0
13,33.43368029576562,{ECBF2BDC-EBB4-4F72-9538-B2751E31ACE9},-82.04437937097241,Residential - Child Care,Wheeless Rd - 2428 Wheeless Rd,25,0
13,33.4352788052351,{4E2B3407-9971-40DC-9FF5-E23134F27BF8},-82.04416534869299,Residential - Regency  Village Apartments,Wheeless Rd - Thomas Ln,26,0
13,33.44063767032174,{AA65D457-748A-421D-924A-CD894B754999},-82.04317721633144,Residential,Wheeless Rd - Courtney Rd,27,0
13,33.4449551734816,{746B0AA8-D680-49FC-AFE4-1E7C01661073},-82.04527646747829,Residential,Wheeless Rd - Storey Rd,28,0
13,33.44758120799286,{1DF6F2F5-8F8C-4106-8BAC-111F71F5BD34},-82.04621394249918,Commercial  - Laundromat - Convenience  Store,Wheeless Rd - Milledgeville Rd,29,0
13,33.4480567954259,{7B2CE61D-BC3E-4DFF-9226-2BB9384BEB05},-82.04433521990649,Residential - Church,Milledgeville Rd - Belmont Ave,30,0
13,33.4479065781067,{A9E25955-56DA-4F22-A39C-0C59CC8F456A},-82.04132290424329,Commercial -Residential,Milledgeville Rd - Wilkinson Cir,31,0
13,33.44777179558804,{B0B830A4-6931-468C-8AE1-D9E79D3A1FA9},-82.03863808780818,Commercial,Milledgeville Rd - Crepe Myrtle Dr,32,0
13,33.44743927743478,{5E356834-2852-40DE-A015-E5473D847C48},-82.03317237297895,Commercial - Child Care - Kiddies Kingdom,Milledgeville Rd - Gordon Hwy,33,0
13,33.44515264821394,{6F38920D-7EA3-4E48-9EE8-FF1F681A7C39},-82.03064827551897,Commercial - Shopping - Across from Gordon Village,Gordon Hwy - Acura Dealership,34,0
13,33.4432009783324,{8C077F99-F1B8-4CDF-A7E3-5BEB970971F9},-82.02957658199749,Commercial - Banking,Gordon Hwy - Regency Blvd,35,0
12,33.48150313944257,{86B14620-BF50-454F-9338-D23E22FBE495},-81.98510076416402,Main Transfer Facility - Broad St,Main Transfer Facility - Broad St - 15th St,1,1
12,33.4808176900928,{5F4E7769-DE0A-4B74-8C27-8C47B861BDE3},-81.98272794332856,Downtown - Broad St - 15th St at Augusta Canal,Broad St - 15th St,2,0
12,33.46256343458916,{2D5E215F-7CAF-43CE-A574-7F593AA13026},-82.07945957800328,Shopping,Augusta Mall -  Food Court,1,0
12,33.47962739172626,{DD4C86BD-3E05-473E-9A65-D1C9564DF8B2},-81.98298061477725,Downtown - Greene St,15th St - Ellis St,35,0
12,33.48150313944257,{7ABCC1E3-7FA0-4BA2-B5A1-C8DBA7014770},-81.98510076416402,End of Line Main Transfer Facility - Broad St,EOL Main Transfer Facility - Broad St - 15th St,36,1
13,33.44087904541413,{621FFA06-D73F-49D2-82AD-65F7B161EACA},-82.02071462320387,Kmart Shelters - McDonalds - Shopping,Transfer Shelter - Deans Bridge Rd - Kmart,1,0
13,33.42938556882635,{2004ADD8-4E6A-440D-83A6-C2A62D354E3E},-82.04563737948435,Residential - Hillcrest Baptist Church,Deans Bridge Rd - Ridge Rd,15,0
13,33.42839449743126,{0F977D09-3DCE-4395-BEF2-64906FB2A127},-82.04793014562527,Commercial - Hotel - Villa Europa - Restaurants,Deans Bridge Rd - Golden Camp Rd,16,0
13,33.42706977650553,{B6921430-5831-43C4-9488-B788126A07CD},-82.0510354774371,Grocery - Commercial,Deans Bridge Rd - Knights Meat Co,17,0
13,33.43357777309795,{9D253885-45FD-4CC0-BBE4-C0BB13715637},-82.09440535794259,Barton Village - Residential,Dublin Dr - Belgrade Ct,1,0
13,33.42428073223366,{CEB77F78-4411-4523-BFCD-1B1BE636235A},-82.0643698062091,Shopping - Southpointe Plaza,Deans Bridge Rd - Walmart - Garden Area,20,0
13,33.42801145320335,{FCFCEFCA-C066-4878-BCF7-DC966045D86D},-82.04818563488749,Commercial - Motels - Villa Europa,Deans Bridge Rd - Dover St,22,0
13,33.42892170353034,{D7D1920C-49A4-4BB3-A1AB-D9D505350F5E},-82.04603350096808,Commercial - Dougs Meat Shop - Pawn Shop,Deans Bridge Rd - A1 Pawn Shop,23,0
13,33.44087542437701,{9C2E808A-DBB4-41D7-9AC2-D4ADA5159B71},-82.02070438266965,EOL Kmart Shelters - McDonalds - Shopping,EOL Transfer Shelter - Deans Bridge Rd - Kmart,36,1
10,33.48150313944257,{06901742-797C-427C-B52B-785A66D4DF64},-81.98510076416402,Main Transfer Facility - Broad St,Main Transfer Facility - Broad St - 15th St,1,1
10,33.48221360389627,{21A6DBBE-38EC-42F7-8A5E-D07243FFC852},-81.98639839607297,Commercial  - Residential - Across from Facilities Maintenance,Broad St - UHAUL,2,0
10,33.48327931956604,{38EA1AE5-B6E0-40DB-ADB0-A2426052B82B},-81.98967551158667,Commercial  - Across from Former School,Broad St - Kings Miill - Goodrich St,3,0
10,33.48451723177713,{7E989004-1CD0-4CE3-AEE0-AC890A1F2BF0},-81.99335119105335,Commercial - KROC Center,Broad St - Crawford Ave,4,0
10,33.48546149097079,{06693F3F-F6A5-4202-A0BF-C9BD6614D4B3},-82.09453034242675,Medical  - Hospital,Doctors Hospital Entrance,1,0
10,33.48423943400425,{E65A57FE-7721-420C-A3E6-68E3C4F169B8},-81.99294941910512,Residential - Bsiness - KROC Center,Broad St - Crawford Ave,29,0
10,33.48314960468345,{370679DE-2D5B-4956-9023-9838A3336EC8},-81.98968255852731,Residential - Industrial  - King Mill - Standard Textiie,Broad St - Former Martha Lester School,30,0
10,33.48150313944257,{5610652E-CF43-43D9-BEB7-2F3D8DA4CC5A},-81.98510076416402,End of Line Main Transfer Facility - Broad St,EOL Main Transfer Facility - Broad St - 15th St,50,1
10,33.48507375996201,{357C39B4-D320-4CAC-8344-57AEE46D24CD},-82.03862112760275,Royal St - Jefferson Dr,,1,0
10,33.48405000758795,{EBBE61BF-BFD7-4DBD-A541-36B37F95CD8D},-82.03851668147782,Jefferson St - Hazel St,,2,0
10,33.48252005189917,{CB6351B8-6107-45A2-8DC0-51313594FEA0},-82.039151114384,Residential - Apts,Oakland Ave - Bransford Rd,3,0
10,33.48231269091158,{F0AA5162-BB2D-44D1-B714-DC838A7462FD},-82.03534022437086,Residential,Oakland Ave - Peachtree Rd,4,0
10,33.48246743971503,{B2F26E95-4ADA-46BD-A0B2-7806A9BBB559},-82.03088927438408,Residential,Highland Ave - Oakland  Ave,5,0
10,33.4835426805973,{09C37AC1-CA44-42E0-ACA4-03ECA2FF6B93},-82.03024078948268,Residential,Highland Ave - Hazel St,6,0